{"type": "FeatureCollection", "features": [{"type": "Feature", "properties": {"id": 0, "series": "dna", "date": "2010.07.24", "event": "D.N.A", "city": "臺中市立體育場", "loc": "台中", "songs": ["春天的吶喊", "軋車", "愛情萬歲", "HoSee", "你不是真正的快樂", "生存以上 生活以下", "瘋狂世界", "候鳥", "時光機", "我們（時時刻刻）", "我心中尚未崩壞的地方", "人生海海", "DNA", "雌雄同體", "離開地球表面 feat. MP魔幻力量", "Get Out feat. MP魔幻力量", "笑忘歌", "如煙", "孫悟空", "約翰藍儂", "我", "最重要的小事", "天使", "生命有一種絕對", "倔強", "OAOA（丟掉名字性別）", "OK啦", "闖", "放肆", "你是唯一", "突然好想你", "知足", "溫柔", "憨人", "戀愛ING", "心中無別人", "透露", "DNA", "離開地球表面 feat. MP魔幻力量", "Get Out feat. MP魔幻力量", "志明與春嬌", "期待再相逢"]}, "geometry": {"type": "Point", "coordinates": [120.689925, 24.1511517]}}, {"type": "Feature", "properties": {"id": 1, "series": "dna", "date": "2010.07.10", "event": "D.N.A", "city": "南京五台山體育場", "loc": "南京", "songs": ["春天的吶喊", "軋車", "愛情萬歲", "HoSee", "你不是真正的快樂", "生存以上 生活以下", "瘋狂世界", "候鳥", "時光機", "我心中尚未崩壞的地方", "人生海海", "DNA", "雌雄同體", "離開地球表面", "笑忘歌", "如煙", "孫悟空", "約翰藍儂", "我", "最重要的小事", "天使", "倔強", "戀愛ING", "突然好想你", "知足", "溫柔", "Loving You", "擁抱", "彩虹", "闖", "後青春期的詩", "憨人"]}, "geometry": {"type": "Point", "coordinates": [118.7738214, 32.05065445]}}, {"type": "Feature", "properties": {"id": 2, "series": "dna", "date": "2010.06.26", "event": "D.N.A", "city": "西安陝西省體育場", "loc": "西安", "songs": ["春天的吶喊", "軋車", "你不是真正的快樂", "生存以上 生活以下", "瘋狂世界", "候鳥", "時光機", "我心中尚未崩壞的地方", "人生海海", "DNA", "雌雄同體", "離開地球表面", "笑忘歌", "如煙", "孫悟空", "約翰藍儂", "我", "最重要的小事", "天使", "倔強", "戀愛ING", "突然好想你", "知足", "溫柔", "擁抱", "鹹魚"]}, "geometry": {"type": "Point", "coordinates": [108.941286, 34.23247387]}}, {"type": "Feature", "properties": {"id": 3, "series": "dna", "date": "2010.06.05", "event": "D.N.A", "city": "吉隆坡布特拉室內體育館", "loc": "吉隆坡", "songs": []}, "geometry": {"type": "Point", "coordinates": [101.7125664, 3.057236591]}}, {"type": "Feature", "properties": {"id": 4, "series": "dna", "date": "2010.05.31", "event": "D.N.A", "city": "香港紅磡體育館", "loc": "香港D4", "songs": ["春天的吶喊", "軋車", "愛情萬歲", "HoSee", "你不是真正的快樂", "生存以上 生活以下", "瘋狂世界", "候鳥", "時光機", "我心中尚未崩壞的地方", "人生海海", "DNA", "雌雄同體", "離開地球表面", "墓仔埔也敢去", "製造浪漫", "笑忘歌", "相信", "如煙", "孫悟空", "約翰藍儂", "我", "最重要的小事", "天使", "生命有一種絕對", "倔強", "戀愛ING", "終結孤單", "突然好想你", "知足", "溫柔", "恆星的恆心", "九號球", "擁抱", "You Give Love A Bad Name", "Smoke On The Water", "心中無別人", "好不好", "後青春期的詩", "憨人"]}, "geometry": {"type": "Point", "coordinates": [114.1820313, 22.30144771]}}, {"type": "Feature", "properties": {"id": 5, "series": "dna", "date": "2010.05.30", "event": "D.N.A", "city": "香港紅磡體育館", "loc": "香港D3", "songs": ["春天的吶喊", "軋車", "愛情萬歲", "HoSee", "你不是真正的快樂", "生存以上 生活以下", "瘋狂世界", "候鳥", "時光機", "我心中尚未崩壞的地方", "人生海海", "DNA", "雌雄同體", "離開地球表面", "製造浪漫", "笑忘歌", "相信", "如煙", "孫悟空", "約翰藍儂", "我", "最重要的小事", "天使", "生命有一種絕對", "戀愛ING", "突然好想你", "知足", "溫柔", "天天想你", "明白", "I Love You無望", "後青春期的詩", "透露", "憨人"]}, "geometry": {"type": "Point", "coordinates": [114.1820313, 22.30144771]}}, {"type": "Feature", "properties": {"id": 6, "series": "dna", "date": "2010.05.29", "event": "D.N.A", "city": "香港紅磡體育館", "loc": "香港D2", "songs": ["春天的吶喊", "軋車", "愛情萬歲", "HoSee", "你不是真正的快樂", "生存以上 生活以下", "瘋狂世界", "候鳥", "時光機", "我心中尚未崩壞的地方", "人生海海", "DNA", "雌雄同體", "離開地球表面", "墓仔埔也敢去", "製造浪漫", "笑忘歌", "相信", "如煙", "孫悟空", "約翰藍儂", "我", "最重要的小事", "天使", "倔強", "戀愛ING", "突然好想你", "知足", "溫柔", "咿呀呀", "生命有一種絕對", "擁抱", "志明與春嬌", "愛情的模樣", "彩虹", "憨人"]}, "geometry": {"type": "Point", "coordinates": [114.1820313, 22.30144771]}}, {"type": "Feature", "properties": {"id": 7, "series": "dna", "date": "2010.05.28", "event": "D.N.A", "city": "香港紅磡體育館", "loc": "香港D1", "songs": ["春天的吶喊", "軋車", "愛情萬歲", "HoSee", "你不是真正的快樂", "生存以上 生活以下", "瘋狂世界", "候鳥", "時光機", "我心中尚未崩壞的地方", "人生海海", "DNA", "雌雄同體", "離開地球表面", "製造浪漫", "墓仔埔也敢去", "笑忘歌", "相信", "如煙", "孫悟空", "約翰藍儂", "我", "最重要的小事", "天使", "生命有一種絕對", "倔強", "戀愛ING", "突然好想你", "知足", "溫柔", "超人", "擁抱", "彩虹", "愛情的模樣", "憨人"]}, "geometry": {"type": "Point", "coordinates": [114.1820313, 22.30144771]}}, {"type": "Feature", "properties": {"id": 8, "series": "dna", "date": "2010.05.22", "event": "D.N.A", "city": "武漢漢口文化體育中心", "loc": "武漢", "songs": ["春天的吶喊", "軋車", "愛情萬歲", "HoSee", "你不是真正的快樂", "生存以上 生活以下", "瘋狂世界", "候鳥", "時光機", "我心中尚未崩壞的地方", "人生海海", "DNA", "雌雄同體", "離開地球表面", "笑忘歌", "小太陽", "孫悟空", "約翰藍儂", "我", "最重要的小事", "天使", "倔強", "戀愛ING", "放肆", "突然好想你", "知足", "溫柔", "擁抱", "憨人"]}, "geometry": {"type": "Point", "coordinates": [114.2707044, 30.60138254]}}, {"type": "Feature", "properties": {"id": 9, "series": "dna", "date": "2010.05.16", "event": "D.N.A", "city": "雪梨 Sydney Entertainment Centre", "loc": "雪梨", "songs": []}, "geometry": {"type": "Point", "coordinates": [151.2029045, -33.87779015]}}, {"type": "Feature", "properties": {"id": 10, "series": "dna", "date": "2010.05.14", "event": "D.N.A", "city": "墨爾本 Hisense Arena", "loc": "墨爾本", "songs": ["春天的吶喊", "軋車", "愛情萬歲", "HoSee", "你不是真正的快樂", "生存以上 生活以下", "瘋狂世界", "候鳥", "時光機", "我心中尚未崩壞的地方", "人生海海", "DNA", "雌雄同體", "離開地球表面", "笑忘歌", "孫悟空", "約翰藍儂", "我", "最重要的小事", "天使", "倔強", "戀愛ING", "終結孤單", "突然好想你", "溫柔", "知足", "聽不到", "憨人"]}, "geometry": {"type": "Point", "coordinates": [144.9824395, -37.82273286]}}, {"type": "Feature", "properties": {"id": 11, "series": "dna", "date": "2010.05.12", "event": "D.N.A", "city": "布里斯本 Brisbane Convention & Exhibition Centre", "loc": "布里斯本", "songs": ["春天的吶喊", "軋車", "愛情萬歲", "HoSee", "你不是真正的快樂", "生存以上 生活以下", "瘋狂世界", "候鳥", "時光機", "我心中尚未崩壞的地方", "人生海海", "DNA", "雌雄同體", "離開地球表面", "笑忘歌", "孫悟空", "約翰藍儂", "我", "最重要的小事", "天使", "倔強", "戀愛ING", "墓仔埔也敢去", "製造浪漫", "突然好想你", "溫柔", "知足", "聽不到"]}, "geometry": {"type": "Point", "coordinates": [153.0191833, -27.47633382]}}, {"type": "Feature", "properties": {"id": 12, "series": "dna", "date": "2010.05.10", "event": "D.N.A", "city": "奧克蘭 TelstraClear Pacific Events Centre", "loc": "奧克蘭", "songs": ["春天的吶喊", "軋車", "愛情萬歲", "HoSee", "你不是真正的快樂", "生存以上 生活以下", "瘋狂世界", "候鳥", "時光機", "我心中尚未崩壞的地方", "人生海海", "DNA", "雌雄同體", "離開地球表面", "笑忘歌", "孫悟空", "約翰藍儂", "最重要的小事", "天使", "生命有一種絕對", "倔強", "戀愛ING", "突然好想你", "知足", "溫柔", "擁抱", "聽不到"]}, "geometry": {"type": "Point", "coordinates": [174.8876395, -36.99890602]}}, {"type": "Feature", "properties": {"id": 13, "series": "dna", "date": "2010.05.02", "event": "D.N.A", "city": "北京工人體育館", "loc": "北京", "songs": ["春天的吶喊", "軋車", "愛情萬歲", "夜訪吸血鬼", "你不是真正的快樂", "生存以上 生活以下", "瘋狂世界", "候鳥", "時光機", "我心中尚未崩壞的地方", "人生海海", "DNA", "雌雄同體", "離開地球表面", "笑忘歌", "相信", "如煙", "孫悟空", "約翰藍儂", "最重要的小事", "天使", "生命有一種絕對", "倔強", "戀愛ING", "突然好想你", "溫柔", "擁抱", "愛情的模樣", "知足", "憨人"]}, "geometry": {"type": "Point", "coordinates": [116.4429951, 39.93244846]}}, {"type": "Feature", "properties": {"id": 14, "series": "dna", "date": "2010.04.24", "event": "D.N.A", "city": "廈門體育中心體育場", "loc": "廈門", "songs": ["春天的吶喊", "軋車", "賭神", "夜訪吸血鬼", "HoSee", "你不是真正的快樂", "生存以上 生活以下", "瘋狂世界", "候鳥", "突然好想你", "我心中尚未崩壞的地方", "人生海海", "DNA", "雌雄同體", "離開地球表面", "笑忘歌", "如煙", "孫悟空", "約翰藍儂", "我", "最重要的小事", "天使", "倔強", "戀愛ING", "放肆", "知足", "溫柔", "I Love You無望", "志明與春嬌", "憨人"]}, "geometry": {"type": "Point", "coordinates": [118.1092368, 24.48648293]}}, {"type": "Feature", "properties": {"id": 15, "series": "dna", "date": "2010.04.17", "event": "D.N.A", "city": "新加坡國家體育場", "loc": "新加坡", "songs": ["春天的吶喊", "爆肝", "賭神", "夜訪吸血鬼", "HoSee", "你不是真正的快樂", "生存以上 生活以下", "瘋狂世界", "候鳥", "一顆蘋果", "突然好想你", "我心中尚未崩壞的地方", "人生海海", "DNA", "雌雄同體", "離開地球表面", "笑忘歌", "相信", "孫悟空", "約翰藍儂", "我", "最重要的小事", "天使", "後青春期的詩", "生命有一種絕對", "軋車", "戀愛ING", "知足", "如煙", "溫柔"]}, "geometry": {"type": "Point", "coordinates": [103.8751731, 1.304068772]}}, {"type": "Feature", "properties": {"id": 16, "series": "dna", "date": "2010.04.11", "event": "D.N.A", "city": "聖荷西 San Jose State University Event Center", "loc": "聖荷西", "songs": ["軋車", "爆肝", "賭神", "HoSee", "你不是真正的快樂", "生存以上 生活以下", "瘋狂世界", "知足", "人生海海", "春天的吶喊", "雌雄同體", "離開地球表面", "笑忘歌", "孫悟空", "約翰藍儂", "最重要的小事", "天使", "倔強", "DNA", "戀愛ING", "生日快樂", "志明與春嬌", "溫柔"]}, "geometry": {"type": "Point", "coordinates": [-121.8796043, 37.33531172]}}, {"type": "Feature", "properties": {"id": 17, "series": "dna", "date": "2010.04.10", "event": "D.N.A", "city": "洛杉磯 Gibson Amphitheatre", "loc": "洛杉磯", "songs": ["軋車", "爆肝", "賭神", "愛情萬歲", "你不是真正的快樂", "生存以上 生活以下", "瘋狂世界", "候鳥", "我心中尚未崩壞的地方", "知足", "人生海海", "春天的吶喊", "雌雄同體", "離開地球表面", "墓仔埔也敢去", "製造浪漫", "笑忘歌", "孫悟空", "約翰藍儂", "我", "最重要的小事", "天使", "DNA", "戀愛ING", "志明與春嬌", "溫柔"]}, "geometry": {"type": "Point", "coordinates": [-118.3527324, 34.13734387]}}, {"type": "Feature", "properties": {"id": 18, "series": "dna", "date": "2010.04.04", "event": "D.N.A", "city": "康乃狄克 Mohegan Sun Arena (下)", "loc": "康乃狄克(午)", "songs": ["軋車", "爆肝", "賭神", "HoSee", "你不是真正的快樂", "生存以上 生活以下", "一顆蘋果", "知足", "小星星", "桂河大橋", "人生海海", "春天的吶喊", "叫我第一名", "離開地球表面", "孫悟空", "約翰藍儂", "我", "最重要的小事", "天使", "憨人", "DNA", "戀愛ING", "突然好想你", "溫柔"]}, "geometry": {"type": "Point", "coordinates": [-72.08838245, 41.49128545]}}, {"type": "Feature", "properties": {"id": 19, "series": "dna", "date": "2010.04.04", "event": "D.N.A", "city": "康乃狄克 Mohegan Sun Arena (上)", "loc": "康乃狄克(早)", "songs": ["軋車", "爆肝", "賭神", "HoSee", "你不是真正的快樂", "生存以上 生活以下", "瘋狂世界", "候鳥", "知足", "小星星", "桂河大橋", "人生海海", "春天的吶喊", "雌雄同體", "離開地球表面", "笑忘歌", "孫悟空", "約翰藍儂", "我", "最重要的小事", "天使", "倔強", "DNA", "戀愛ING", "溫柔"]}, "geometry": {"type": "Point", "coordinates": [-72.08838245, 41.49128545]}}, {"type": "Feature", "properties": {"id": 20, "series": "dna", "date": "2009.12.26", "event": "D.N.A", "city": "湖南國際會展中心", "loc": "長沙", "songs": []}, "geometry": {"type": "Point", "coordinates": [113.0511034, 28.23394682]}}, {"type": "Feature", "properties": {"id": 21, "series": "dna", "date": "2009.12.12", "event": "D.N.A", "city": "鄭州國際會展中心", "loc": "鄭州", "songs": []}, "geometry": {"type": "Point", "coordinates": [113.7307502, 34.77326179]}}, {"type": "Feature", "properties": {"id": 22, "series": "dna", "date": "2009.12.05", "event": "D.N.A", "city": "高雄國家體育場", "loc": "高雄", "songs": ["軋車", "爆肝", "賭神", "HoSee", "你不是真正的快樂", "生存以上 生活以下", "瘋狂世界", "候鳥", "一顆蘋果", "我心中尚未崩壞的地方", "知足", "人生海海", "生命有一種絕對", "春天的吶喊", "叫我第一名", "雌雄同體", "離開地球表面", "笑忘歌", "垃圾車", "孫悟空", "約翰藍儂", "我", "最重要的小事", "天使", "起來", "憨人", "DNA", "戀愛ING", "夜訪吸血鬼", "如煙", "突然好想你", "溫柔", "生日快樂", "心中無別人", "OK啦", "有你的將來", "麥來亂", "I Love You無望", "好不好", "志明與春嬌", "借問眾神明", "出頭天"]}, "geometry": {"type": "Point", "coordinates": [120.2948945, 22.70332913]}}, {"type": "Feature", "properties": {"id": 23, "series": "dna", "date": "2009.11.21", "event": "D.N.A", "city": "廣州體育館", "loc": "廣州", "songs": ["軋車", "爆肝", "賭神", "愛情萬歲", "HoSee", "你不是真正的快樂", "生存以上 生活以下", "瘋狂世界", "候鳥", "一顆蘋果", "我心中尚未崩壞的地方", "知足", "人生海海", "春天的吶喊", "叫我第一名", "雌雄同體", "離開地球表面", "DNA", "笑忘歌", "如煙", "孫悟空", "約翰藍儂", "我", "最重要的小事", "天使", "倔強", "戀愛ING", "放肆", "突然好想你", "溫柔", "天天想你", "擁抱", "聽不到"]}, "geometry": {"type": "Point", "coordinates": [113.2773211, 23.18168165]}}, {"type": "Feature", "properties": {"id": 24, "series": "dna", "date": "2009.11.03", "event": "D.N.A", "city": "東京 Zepp Tokyo", "loc": "東京", "songs": ["軋車", "爆肝", "賭神", "HoSee", "你不是真正的快樂", "生存以上 生活以下", "瘋狂世界", "候鳥", "知足", "人生海海", "春天的吶喊", "叫我第一名", "離開地球表面", "DNA", "笑忘歌", "如煙", "孫悟空", "約翰藍儂", "我", "最重要的小事", "天使", "倔強", "戀愛ING", "突然好想你", "溫柔", "擁抱", "垃圾車", "憨人"]}, "geometry": {"type": "Point", "coordinates": [139.7829124, 35.62606028]}}, {"type": "Feature", "properties": {"id": 25, "series": "dna", "date": "2009.10.31", "event": "D.N.A", "city": "大田灣體育場", "loc": "重慶", "songs": []}, "geometry": {"type": "Point", "coordinates": [106.5470743, 29.55457878]}}, {"type": "Feature", "properties": {"id": 26, "series": "dna", "date": "2009.10.17", "event": "D.N.A", "city": "佛山嶺南明珠體育館", "loc": "佛山", "songs": []}, "geometry": {"type": "Point", "coordinates": [113.1277968, 23.01441761]}}, {"type": "Feature", "properties": {"id": 27, "series": "dna", "date": "2009.10.06", "event": "D.N.A", "city": "南京奧體中心體育館", "loc": "南京", "songs": []}, "geometry": {"type": "Point", "coordinates": [118.7200165, 32.00849611]}}, {"type": "Feature", "properties": {"id": 28, "series": "dna", "date": "2009.09.27", "event": "D.N.A", "city": "臺北小巨蛋", "loc": "台北D4", "songs": ["軋車", "爆肝", "賭神", "愛情萬歲", "HoSee", "你不是真正的快樂", "生存以上 生活以下", "瘋狂世界", "候鳥", "一顆蘋果", "我心中尚未崩壞的地方", "知足", "人生海海", "春天的吶喊", "叫我第一名", "雌雄同體", "離開地球表面", "DNA", "笑忘歌", "如煙", "孫悟空", "約翰藍儂", "我", "最重要的小事", "天使", "起來", "戀愛ING", "放肆", "突然好想你", "溫柔", "咿呀呀", "九號球", "擁抱", "終結孤單", "志明與春嬌", "後青春期的詩", "垃圾車", "出頭天", "憨人"]}, "geometry": {"type": "Point", "coordinates": [121.549655, 25.05133786]}}, {"type": "Feature", "properties": {"id": 29, "series": "dna", "date": "2009.09.26", "event": "D.N.A", "city": "臺北小巨蛋", "loc": "台北D3", "songs": ["軋車", "爆肝", "賭神", "愛情萬歲", "HoSee", "你不是真正的快樂", "生存以上 生活以下", "瘋狂世界", "候鳥", "一顆蘋果", "我心中尚未崩壞的地方", "知足", "人生海海", "春天的吶喊", "叫我第一名", "雌雄同體", "離開地球表面", "DNA", "笑忘歌", "如煙", "孫悟空", "約翰藍儂", "我", "最重要的小事", "天使", "起來", "戀愛ING", "放肆", "突然好想你", "溫柔", "憨人", "垃圾車", "愛情的模樣", "彩虹", "明白", "我是真的愛你", "反而", "志明與春嬌", "擁抱", "甜蜜蜜"]}, "geometry": {"type": "Point", "coordinates": [121.549655, 25.05133786]}}, {"type": "Feature", "properties": {"id": 30, "series": "dna", "date": "2009.09.25", "event": "D.N.A", "city": "臺北小巨蛋", "loc": "台北D2", "songs": ["軋車", "爆肝", "賭神", "愛情萬歲", "HoSee", "你不是真正的快樂", "生存以上 生活以下", "瘋狂世界", "候鳥", "一顆蘋果", "我心中尚未崩壞的地方", "知足", "人生海海", "春天的吶喊", "叫我第一名", "雌雄同體", "離開地球表面", "DNA", "笑忘歌", "如煙", "孫悟空", "約翰藍儂", "我", "最重要的小事", "天使", "起來", "戀愛ING", "放肆", "突然好想你", "溫柔", "超人", "擁抱", "Loving You", "透露", "心中無別人", "I Love You無望", "志明與春嬌", "出頭天", "憨人"]}, "geometry": {"type": "Point", "coordinates": [121.549655, 25.05133786]}}, {"type": "Feature", "properties": {"id": 31, "series": "dna", "date": "2009.09.24", "event": "D.N.A", "city": "臺北小巨蛋", "loc": "台北D1", "songs": ["軋車", "爆肝", "賭神", "愛情萬歲", "HoSee", "你不是真正的快樂", "生存以上 生活以下", "瘋狂世界", "候鳥", "一顆蘋果", "我心中尚未崩壞的地方", "知足", "人生海海", "春天的吶喊", "叫我第一名", "雌雄同體", "離開地球表面", "DNA", "笑忘歌", "如煙", "孫悟空", "約翰藍儂", "我", "最重要的小事", "天使", "起來", "戀愛ING", "放肆", "突然好想你", "溫柔", "九號球", "擁抱", "彩虹", "志明與春嬌", "愛情的模樣", "憨人"]}, "geometry": {"type": "Point", "coordinates": [121.549655, 25.05133786]}}, {"type": "Feature", "properties": {"id": 32, "series": "dna", "date": "2009.08.29", "event": "D.N.A", "city": "新加坡室內體育館", "loc": "新加波D2", "songs": ["軋車", "爆肝", "賭神", "愛情萬歲", "HoSee", "你不是真正的快樂", "生存以上 生活以下", "瘋狂世界", "候鳥", "一顆蘋果", "我心中尚未崩壞的地方", "知足", "人生海海", "春天的吶喊", "叫我第一名", "雌雄同體", "離開地球表面", "DNA", "鼓聲若響", "墓仔埔也敢去", "笑忘歌", "垃圾車", "如煙", "孫悟空", "約翰藍儂", "我", "最重要的小事", "天使", "倔強", "戀愛ING", "放肆", "夜訪吸血鬼", "突然好想你", "溫柔", "明白", "擁抱", "終結孤單", "志明與春嬌", "愛情的模樣", "出頭天"]}, "geometry": {"type": "Point", "coordinates": [103.8746515, 1.300924859]}}, {"type": "Feature", "properties": {"id": 33, "series": "dna", "date": "2009.08.28", "event": "D.N.A", "city": "新加坡室內體育館", "loc": "新加坡D1", "songs": ["軋車", "爆肝", "賭神", "愛情萬歲", "HoSee", "你不是真正的快樂", "生存以上 生活以下", "瘋狂世界", "候鳥", "一顆蘋果", "我心中尚未崩壞的地方", "知足", "人生海海", "春天的吶喊", "叫我第一名", "雌雄同體", "離開地球表面", "DNA", "墓仔埔也敢去", "製造浪漫", "笑忘歌", "如煙", "孫悟空", "約翰藍儂", "我", "最重要的小事", "天使", "倔強", "戀愛ING", "放肆", "突然好想你", "溫柔", "天天想你", "咿呀呀", "擁抱", "終結孤單", "志明與春嬌", "I Love You無望", "憨人"]}, "geometry": {"type": "Point", "coordinates": [103.8746515, 1.300924859]}}, {"type": "Feature", "properties": {"id": 34, "series": "dna", "date": "2009.08.21", "event": "D.N.A", "city": "杭州黃龍體育場", "loc": "杭州", "songs": []}, "geometry": {"type": "Point", "coordinates": [120.1339248, 30.26616539]}}, {"type": "Feature", "properties": {"id": 35, "series": "dna", "date": "2009.08.01", "event": "D.N.A", "city": "哈爾濱會展中心體育館", "loc": "哈爾濱", "songs": []}, "geometry": {"type": "Point", "coordinates": [126.7054067, 45.75608578]}}, {"type": "Feature", "properties": {"id": 36, "series": "dna", "date": "2009.07.11", "event": "D.N.A", "city": "北京首都體育館", "loc": "北京", "songs": []}, "geometry": {"type": "Point", "coordinates": [116.327564, 39.94031905]}}, {"type": "Feature", "properties": {"id": 37, "series": "dna", "date": "2009.07.04", "event": "D.N.A", "city": "上海虹口足球場", "loc": "上海D2", "songs": []}, "geometry": {"type": "Point", "coordinates": [121.4766709, 31.27340182]}}, {"type": "Feature", "properties": {"id": 38, "series": "dna", "date": "2009.07.03", "event": "D.N.A", "city": "上海虹口足球場", "loc": "上海D1", "songs": []}, "geometry": {"type": "Point", "coordinates": [121.4766709, 31.27340182]}}, {"type": "Feature", "properties": {"id": 39, "series": "dna", "date": "2009.05.29", "event": "D.N.A", "city": "雪梨 Sydney Entertainment Centre", "loc": "雪梨", "songs": ["軋車", "爆肝", "賭神", "HoSee", "你不是真正的快樂", "生存以上 生活以下", "瘋狂世界", "候鳥", "我心中尚未崩壞的地方", "知足", "人生海海", "春天的吶喊", "叫我第一名", "夜訪吸血鬼", "雌雄同體", "DNA", "離開地球表面", "笑忘歌", "孫悟空", "約翰藍儂", "我", "最重要的小事", "天使", "倔強", "戀愛ING", "溫柔", "突然好想你", "憨人"]}, "geometry": {"type": "Point", "coordinates": [151.2029045, -33.87779015]}}, {"type": "Feature", "properties": {"id": 40, "series": "dna", "date": "2009.05.28", "event": "D.N.A", "city": "墨爾本 Hisense Arena", "loc": "墨爾本", "songs": ["軋車", "爆肝", "賭神", "HoSee", "你不是真正的快樂", "生存以上 生活以下", "瘋狂世界", "候鳥", "我心中尚未崩壞的地方", "知足", "人生海海", "春天的吶喊", "叫我第一名", "夜訪吸血鬼", "雌雄同體", "DNA", "離開地球表面", "笑忘歌", "孫悟空", "約翰藍儂", "我", "最重要的小事", "天使", "倔強", "戀愛ING", "溫柔"]}, "geometry": {"type": "Point", "coordinates": [144.9824395, -37.82273286]}}, {"type": "Feature", "properties": {"id": 41, "series": "dna", "date": "2009.05.22", "event": "D.N.A", "city": "香港紅磡體育館", "loc": "香港D3", "songs": []}, "geometry": {"type": "Point", "coordinates": [114.1820313, 22.30144771]}}, {"type": "Feature", "properties": {"id": 42, "series": "dna", "date": "2009.05.21", "event": "D.N.A", "city": "香港紅磡體育館", "loc": "香港D2", "songs": []}, "geometry": {"type": "Point", "coordinates": [114.1820313, 22.30144771]}}, {"type": "Feature", "properties": {"id": 43, "series": "dna", "date": "2009.05.20", "event": "D.N.A", "city": "香港紅磡體育館", "loc": "香港D1", "songs": []}, "geometry": {"type": "Point", "coordinates": [114.1820313, 22.30144771]}}, {"type": "Feature", "properties": {"id": 44, "series": "final_home", "date": "2006.07.23", "event": "Final Home", "city": "臺北小巨蛋", "loc": "台北D2", "songs": ["孫悟空", "終結孤單", "叫我第一名", "愛情萬歲", "脫掉", "輕功", "賭神", "亂世浮生", "戀愛ING", "在梅邊 feat. 王力宏", "心中無別人 feat. 王力宏", "知足", "牙關", "HoSee", "晚安地球人", "Loving You", "擁抱", "相信", "小護士", "透露", "人生海海", "回家", "瘋狂世界", "I Love You無望", "燕尾蝶", "候鳥", "第一天", "聽不到", "垃圾車", "憨人", "軋車", "志明與春嬌", "溫柔", "倔強"]}, "geometry": {"type": "Point", "coordinates": [121.549655, 25.05133786]}}, {"type": "Feature", "properties": {"id": 45, "series": "final_home", "date": "2006.07.22", "event": "Final Home", "city": "臺北小巨蛋", "loc": "台北D1", "songs": ["孫悟空", "終結孤單", "叫我第一名", "愛情萬歲", "脫掉", "輕功", "賭神", "亂世浮生", "戀愛ING", "彩虹", "某年某月某一天 feat. ENERGY", "知足", "牙關", "HoSee", "晚安地球人", "擁抱", "相信", "小護士", "透露", "人生海海", "回家", "瘋狂世界", "I Love You無望", "燕尾蝶", "雌雄同體", "心中無別人", "聽不到", "垃圾車", "憨人", "軋車", "志明與春嬌", "倔強", "溫柔"]}, "geometry": {"type": "Point", "coordinates": [121.549655, 25.05133786]}}, {"type": "Feature", "properties": {"id": 46, "series": "final_home", "date": "2006.05.01", "event": "Final Home", "city": "香港紅磡體育館", "loc": "香港", "songs": ["孫悟空", "雙截棍", "搖滾本事", "終結孤單", "叫我第一名", "愛情萬歲", "脫掉", "燕尾蝶", "輕功", "花（音樂來自四方）", "雌雄同體", "賭神", "亂世浮生", "戀愛ING", "瘋狂世界 feat. 陳綺貞", "吉他手 feat. 陳綺貞", "旅行的意義 feat. 陳綺貞", "知足", "牙關", "恆星的恆心", "HoSee", "晚安地球人", "擁抱", "相信", "小護士", "Knockin' On Heaven's Door feat. 周華健", "人生海海", "心中無別人", "聽不到", "垃圾車", "憨人", "軋車", "倔強", "溫柔"]}, "geometry": {"type": "Point", "coordinates": [114.1820313, 22.30144771]}}, {"type": "Feature", "properties": {"id": 47, "series": "final_home", "date": "2006.01.20", "event": "Final Home", "city": "大阪梅田藝術劇場", "loc": "大阪", "songs": []}, "geometry": {"type": "Point", "coordinates": [135.4991707, 34.70850981]}}, {"type": "Feature", "properties": {"id": 48, "series": "final_home", "date": "2006.01.14", "event": "Final Home", "city": "吉隆坡默迪卡體育場", "loc": "吉隆坡", "songs": ["孫悟空", "搖滾本事", "終結孤單", "叫我第一名", "愛情萬歲", "脫掉", "燕尾蝶", "輕功", "雌雄同體", "賭神", "亂世浮生", "戀愛ING", "志明與春嬌", "知足", "牙關", "恆星的恆心", "HoSee", "晚安地球人", "擁抱", "相信", "小護士", "人生海海", "瘋狂世界", "第一天", "聽不到", "垃圾車", "憨人", "軋車", "溫柔", "倔強"]}, "geometry": {"type": "Point", "coordinates": [101.7012952, 3.139514536]}}, {"type": "Feature", "properties": {"id": 49, "series": "final_home", "date": "2006.01.07", "event": "Final Home", "city": "成都四川省體育館", "loc": "成都", "songs": ["孫悟空", "搖滾本事", "終結孤單", "叫我第一名", "愛情萬歲", "脫掉", "燕尾蝶", "輕功", "雌雄同體", "賭神", "亂世浮生", "戀愛ING", "終結孤單", "吉他手 feat. 陳綺貞", "旅行的意義 feat. 陳綺貞", "知足", "牙關", "恆星的恆心", "HoSee", "晚安地球人", "擁抱", "相信", "小護士", "人生海海", "瘋狂世界", "第一天", "聽不到", "垃圾車", "憨人", "軋車", "溫柔"]}, "geometry": {"type": "Point", "coordinates": [104.0659552, 30.63140731]}}, {"type": "Feature", "properties": {"id": 50, "series": "final_home", "date": "2005.12.10", "event": "Final Home", "city": "新加坡室內體育館", "loc": "新加坡", "songs": []}, "geometry": {"type": "Point", "coordinates": [103.8746515, 1.300924859]}}, {"type": "Feature", "properties": {"id": 51, "series": "final_home", "date": "2005.11.05", "event": "Final Home", "city": "北京工人體育館", "loc": "北京", "songs": ["孫悟空", "搖滾本事", "終結孤單", "叫我第一名", "燕尾蝶", "輕功", "花（音樂來自四方）", "賭神", "亂世浮生", "戀愛ING", "志明與春嬌", "闖", "知足", "牙關", "恆星的恆心", "HoSee", "晚安地球人", "擁抱", "相信", "小護士", "人生海海", "瘋狂世界", "聽不到", "垃圾車", "一個人 feat. 李宗盛", "憨人 feat. 李宗盛", "鹹魚", "軋車", "溫柔", "倔強"]}, "geometry": {"type": "Point", "coordinates": [116.4429951, 39.93244846]}}, {"type": "Feature", "properties": {"id": 52, "series": "final_home", "date": "2005.10.22", "event": "Final Home", "city": "上海虹口足球場", "loc": "上海", "songs": ["孫悟空", "放手", "終結孤單", "OK啦", "叫我第一名", "燕尾蝶", "愛情萬歲", "拖吊", "輕功", "花（音樂來自四方）", "賭神", "亂世浮生", "我愛夏天", "戀愛ING", "而我知道", "知足", "牙關", "恆星的恆心", "HoSee", "晚安地球人", "擁抱", "相信", "小護士", "人生海海", "瘋狂世界", "野蠻遊戲 feat. 蔡依林", "天空 feat. 蔡依林", "彩虹 feat. 蔡依林", "聽不到", "垃圾車", "鹹魚", "軋車", "志明與春嬌", "溫柔", "倔強"]}, "geometry": {"type": "Point", "coordinates": [121.4766709, 31.27340182]}}, {"type": "Feature", "properties": {"id": 53, "series": "final_home", "date": "2005.03.19", "event": "Final Home", "city": "臺中市體育場", "loc": "台中", "songs": ["孫悟空", "終結孤單", "OK啦", "叫我第一名", "愛情萬歲", "脫掉", "輕功", "恆星的恆心", "I Love You無望", "寂寞星球", "讓我照顧你", "花（音樂來自四方）", "我", "愛情的模樣", "聽不到", "燕尾蝶", "超人", "HoSee", "晚安地球人", "這個世界", "擁抱", "相信", "當我們同在一起", "小護士", "人生海海", "心中無別人", "約翰藍儂", "瘋狂世界", "垃圾車", "憨人", "軋車", "志明與春嬌", "溫柔", "倔強", "透露", "掌聲響起"]}, "geometry": {"type": "Point", "coordinates": [120.689925, 24.1511517]}}, {"type": "Feature", "properties": {"id": 54, "series": "final_home", "date": "2005.02.20", "event": "Final Home", "city": "聖荷西 San Jose State University Event Center", "loc": "聖荷西", "songs": ["孫悟空", "終結孤單", "OK啦", "叫我第一名", "愛情萬歲", "脫掉", "恆星的恆心", "I Love You無望", "超人", "瘋狂世界", "HoSee", "晚安地球人", "擁抱", "相信", "小護士", "製造浪漫", "墓仔埔也敢去", "人生海海", "聽不到 feat. 梁靜茹", "心中無別人", "垃圾車", "志明與春嬌", "軋車", "而我知道", "憨人", "溫柔"]}, "geometry": {"type": "Point", "coordinates": [-121.8796043, 37.33531172]}}, {"type": "Feature", "properties": {"id": 55, "series": "final_home", "date": "2005.02.19", "event": "Final Home", "city": "洛杉磯 Grand Olympic Auditorium", "loc": "洛杉磯", "songs": ["孫悟空", "終結孤單", "OK啦", "叫我第一名", "軋車", "愛情萬歲", "阿姆斯壯", "賭神", "恆星的恆心", "I Love You無望", "超人", "瘋狂世界", "HoSee", "晚安地球人", "擁抱", "相信", "當我們同在一起", "小護士", "人生海海", "聽不到 feat. 梁靜茹", "心中無別人", "垃圾車", "志明與春嬌", "憨人", "溫柔", "倔強", "透露"]}, "geometry": {"type": "Point", "coordinates": [-118.2661983, 34.03454005]}}, {"type": "Feature", "properties": {"id": 56, "series": "final_home", "date": "2005.01.08", "event": "Final Home", "city": "臺北市立體育場", "loc": "台北", "songs": ["孫悟空", "終結孤單", "聖誕夜驚魂", "OK啦", "叫我第一名", "燕尾蝶", "愛情萬歲", "脫掉", "時光機", "輕功", "賭神", "恆星的恆心", "I Love You無望", "武裝", "一顆蘋果", "而我知道", "回來吧", "超人", "瘋狂世界", "HoSee", "晚安地球人", "這個世界", "擁抱", "相信", "當我們同在一起", "小護士", "人生海海", "讓我照顧你", "心中無別人", "約翰藍儂", "垃圾車", "朋友", "憨人", "軋車", "志明與春嬌", "溫柔", "倔強", "透露", "晚安曲"]}, "geometry": {"type": "Point", "coordinates": [121.5495556, 25.04936792]}}, {"type": "Feature", "properties": {"id": 57, "series": "final_home", "date": "2004.12.25", "event": "Final Home", "city": "臺南市立體育場", "loc": "台南", "songs": ["孫悟空", "終結孤單", "聖誕夜驚魂", "OK啦", "叫我第一名", "燕尾蝶", "愛情萬歲", "脫掉", "時光機", "輕功", "賭神", "恆星的恆心", "I Love You無望", "武裝", "一顆蘋果", "而我知道", "回來吧", "超人", "瘋狂世界", "HoSee", "晚安地球人", "這個世界", "擁抱", "相信", "當我們同在一起", "小護士", "人生海海", "讓我照顧你", "心中無別人", "約翰藍儂", "垃圾車", "朋友", "憨人", "軋車", "志明與春嬌", "溫柔", "聽不到", "倔強", "透露", "晚安曲"]}, "geometry": {"type": "Point", "coordinates": [120.2066264, 22.97844866]}}, {"type": "Feature", "properties": {"id": 58, "series": "fly_to_2021", "date": "2021.03.29", "event": "好好好想見到你", "city": "臺南市立體育場", "loc": "台南", "songs": ["一顆蘋果", "盛夏光年", "愛情萬歲", "派對動物", "離開地球表面", "愛情的模樣", "知足", "瘋狂世界", "香水", "擁抱", "OK啦", "生日快樂歌", "啾啾啾", "志明與春嬌", "如果我們不曾相遇", "最重要的小事", "永遠的永遠", "勇敢", "出頭天", "人生海海", "孫悟空", "OAOA", "生命有一種絕對", "突然好想你", "好不好", "什麼歌", "垃圾車", "任意門", "因為你所以我", "諾亞方舟", "倔強", "好好", "玫瑰少年", "成名在望", "笑忘歌", "傷心的人別聽慢歌", "乾杯", "憨人", "軋車"]}, "geometry": {"type": "Point", "coordinates": [120.206798, 22.97834988]}}, {"type": "Feature", "properties": {"id": 59, "series": "fly_to_2021", "date": "2021.03.28", "event": "好好好想見到你", "city": "臺南市立體育場", "loc": "台南", "songs": ["一顆蘋果", "盛夏光年", "愛情萬歲", "派對動物", "離開地球表面", "愛情的模樣", "知足", "瘋狂世界", "香水", "擁抱", "借問眾神明", "黑白講", "心中無別人", "如果我們不曾相遇", "最重要的小事", "永遠的永遠", "勇敢", "出頭天", "人生海海", "孫悟空", "羅密歐與茱麗葉", "OAOA", "生命有一種絕對", "I Love You無望 feat. 黃士杰", "戀愛ING feat. 黃士杰", "突然好想你", "因為你所以我", "諾亞方舟", "倔強", "好好", "玫瑰少年", "成名在望", "笑忘歌", "傷心的人別聽慢歌", "乾杯", "志明與春嬌", "憨人", "月亮代表我的心"]}, "geometry": {"type": "Point", "coordinates": [120.206798, 22.97834988]}}, {"type": "Feature", "properties": {"id": 60, "series": "fly_to_2021", "date": "2021.03.27", "event": "好好好想見到你", "city": "臺南市立體育場", "loc": "台南", "songs": ["一顆蘋果", "盛夏光年", "愛情萬歲", "派對動物", "離開地球表面", "愛情的模樣", "知足", "瘋狂世界", "香水", "擁抱", "最重要的小事", "透露", "好不好", "為什麼 (今日的愛情)", "如果我們不曾相遇", "最重要的小事", "永遠的永遠", "勇敢", "出頭天", "人生海海", "孫悟空", "OAOA", "生命有一種絕對", "所有相愛的人呀 feat. 劉若英", "各自安好 feat. 劉若英", "成全", "後來 feat. 劉若英", "突然好想你", "諾亞方舟", "倔強", "好好", "玫瑰少年", "笑忘歌", "傷心的人別聽慢歌", "乾杯", "憨人"]}, "geometry": {"type": "Point", "coordinates": [120.206798, 22.97834988]}}, {"type": "Feature", "properties": {"id": 61, "series": "fly_to_2021", "date": "2021.03.21", "event": "好好好想見到你", "city": "臺南市立體育場", "loc": "台南", "songs": ["一顆蘋果", "盛夏光年", "愛情萬歲", "派對動物", "離開地球表面", "愛情的模樣", "知足", "瘋狂世界", "香水", "擁抱", "HoSee", "透露", "I Love You無望", "垃圾車", "如果我們不曾相遇", "最重要的小事", "永遠的永遠", "勇敢", "出頭天", "人生海海", "孫悟空", "OAOA", "生命有一種絕對", "我不願讓你一個人 feat. 周華健", "刀劍如夢 feat. 周華健", "突然好想你", "因為你所以我", "諾亞方舟", "倔強", "好好", "玫瑰少年", "笑忘歌", "傷心的人別聽慢歌", "乾杯", "相信", "軋車"]}, "geometry": {"type": "Point", "coordinates": [120.206798, 22.97834988]}}, {"type": "Feature", "properties": {"id": 62, "series": "fly_to_2021", "date": "2021.03.20", "event": "好好好想見到你", "city": "臺南市立體育場", "loc": "台南", "songs": ["一顆蘋果", "盛夏光年", "愛情萬歲", "派對動物", "離開地球表面", "愛情的模樣", "知足", "瘋狂世界", "香水", "擁抱", "志明與春嬌", "龍捲風", "雨眠", "借問眾神明", "如果我們不曾相遇", "最重要的小事", "永遠的永遠", "勇敢", "出頭天", "人生海海", "我不願讓你一個人", "孫悟空", "OAOA", "生命有一種絕對", "忘詞", "突然好想你", "因為你所以我", "諾亞方舟", "倔強", "好好", "玫瑰少年", "笑忘歌", "傷心的人別聽慢歌", "乾杯", "憨人"]}, "geometry": {"type": "Point", "coordinates": [120.206798, 22.97834988]}}, {"type": "Feature", "properties": {"id": 63, "series": "fly_to_2021", "date": "2021.01.10", "event": "好好好想見到你", "city": "桃園國際棒球場", "loc": "桃園", "songs": ["一顆蘋果", "盛夏光年", "愛情萬歲", "星空", "派對動物", "離開地球表面", "愛情的模樣", "知足", "瘋狂世界", "香水", "擁抱", "天使", "相信", "我不願讓你一個人", "如果我們不曾相遇", "最重要的小事", "永遠的永遠", "勇敢", "出頭天", "人生海海", "溫柔", "孫悟空", "OAOA", "生命有一種絕對", "突然好想你", "因為你所以我", "諾亞方舟", "倔強", "好好", "玫瑰少年", "成名在望", "笑忘歌", "傷心的人別聽慢歌", "乾杯", "刻在我心底的名字", "憨人"]}, "geometry": {"type": "Point", "coordinates": [121.2004208, 25.00099217]}}, {"type": "Feature", "properties": {"id": 64, "series": "fly_to_2021", "date": "2021.01.09", "event": "好好好想見到你", "city": "桃園國際棒球場", "loc": "桃園", "songs": ["一顆蘋果", "盛夏光年", "愛情萬歲", "星空", "派對動物", "離開地球表面", "愛情的模樣", "知足", "瘋狂世界", "香水", "擁抱", "志明與春嬌", "戀愛ING", "如果我們不曾相遇", "最重要的小事", "永遠的永遠", "勇敢", "出頭天", "人生海海", "溫柔", "孫悟空", "OAOA", "生命有一種絕對", "我不願讓你一個人", "I Love You無望 feat. 茄子蛋", "麥來亂 feat. 茄子蛋", "突然好想你", "因為你所以我", "諾亞方舟", "倔強", "好好", "玫瑰少年", "笑忘歌", "傷心的人別聽慢歌", "乾杯", "刻在我心底的名字", "憨人"]}, "geometry": {"type": "Point", "coordinates": [121.2004208, 25.00099217]}}, {"type": "Feature", "properties": {"id": 65, "series": "fly_to_2021", "date": "2021.01.08", "event": "好好好想見到你", "city": "桃園國際棒球場", "loc": "桃園", "songs": ["一顆蘋果", "盛夏光年", "愛情萬歲", "星空", "派對動物", "離開地球表面", "愛情的模樣", "知足", "瘋狂世界", "香水", "擁抱", "我不願讓你一個人", "彩虹", "採紅菱", "如果我們不曾相遇", "最重要的小事", "永遠的永遠", "勇敢", "出頭天", "人生海海", "溫柔", "孫悟空", "OAOA", "生命有一種絕對", "聖誕夜驚魂", "突然好想你", "因為你所以我", "諾亞方舟", "倔強", "好好", "玫瑰少年", "轉眼", "笑忘歌", "傷心的人別聽慢歌", "乾杯", "軋車", "憨人"]}, "geometry": {"type": "Point", "coordinates": [121.2004208, 25.00099217]}}, {"type": "Feature", "properties": {"id": 66, "series": "fly_to_2021", "date": "2021.01.02", "event": "好好好想見到你", "city": "桃園國際棒球場", "loc": "桃園", "songs": ["一顆蘋果", "盛夏光年", "愛情萬歲", "星空", "派對動物", "離開地球表面", "愛情的模樣", "知足", "瘋狂世界", "香水", "擁抱", "我不願讓你一個人", "如果我們不曾相遇", "最重要的小事", "永遠的永遠", "勇敢", "出頭天", "人生海海", "溫柔", "孫悟空", "OAOA", "生命有一種絕對", "製造浪漫", "垃圾車", "突然好想你", "因為你所以我", "諾亞方舟", "倔強", "好好", "玫瑰少年", "刻在我心底的名字", "笑忘歌", "傷心的人別聽慢歌", "乾杯", "軋車", "憨人"]}, "geometry": {"type": "Point", "coordinates": [121.2004208, 25.00099217]}}, {"type": "Feature", "properties": {"id": 67, "series": "fly_to_2021", "date": "2021.01.01", "event": "好好好想見到你", "city": "桃園國際棒球場", "loc": "桃園", "songs": ["一顆蘋果", "盛夏光年", "愛情萬歲", "星空", "派對動物", "離開地球表面", "愛情的模樣", "知足", "瘋狂世界", "香水", "擁抱", "聽不到", "我不願讓你一個人", "如果我們不曾相遇", "最重要的小事", "永遠的永遠", "勇敢", "出頭天", "人生海海", "溫柔", "孫悟空", "OAOA", "突然好想你 feat. 周杰倫", "不愛我就拉倒 feat. 周杰倫", "說好不哭 feat. 周杰倫", "因為你所以我", "諾亞方舟", "倔強", "好好", "玫瑰少年", "轉眼", "笑忘歌", "傷心的人別聽慢歌", "乾杯", "軋車", "憨人"]}, "geometry": {"type": "Point", "coordinates": [121.2004208, 25.00099217]}}, {"type": "Feature", "properties": {"id": 68, "series": "fly_to_2021", "date": "2020.12.31", "event": "好好好想見到你", "city": "桃園國際棒球場", "loc": "桃園", "songs": ["一顆蘋果", "盛夏光年", "愛情萬歲", "星空", "派對動物", "離開地球表面", "愛情的模樣", "知足", "孫悟空", "香水", "擁抱", "我不願讓你一個人", "如果我們不曾相遇", "最重要的小事", "永遠的永遠", "勇敢", "出頭天", "溫柔", "終結孤單", "戀愛ING", "突然好想你", "諾亞方舟", "倔強", "瘋狂世界", "OAOA", "玫瑰少年", "好好", "因為你所以我", "笑忘歌", "人生海海 人生海海", "刻在我心底的名字", "成名在望", "後來的我們", "乾杯", "憨人", "聽不到"]}, "geometry": {"type": "Point", "coordinates": [121.2004208, 25.00099217]}}, {"type": "Feature", "properties": {"id": 69, "series": "jump", "date": "2008.05.31", "event": "回到地球表面", "city": "香港亞洲國際博覽館", "loc": "香港", "songs": ["抓狂", "香水", "叫我第一名", "為愛而生", "一千個世紀", "雌雄同體", "愛情萬歲", "離開地球表面", "生命有一種絕對", "孫悟空", "小太陽", "恆星的恆心", "九號球", "離家出走", "闖", "生活", "瘋狂世界", "垃圾車", "愛情的模樣", "哄我入睡", "那些女孩教我的事(品冠)", "咿呀呀", "最重要的小事", "我又初戀了", "戀愛ING", "洋蔥", "軋車", "阿里山的姑娘", "溫柔", "倔強", "人生海海", "天使", "知足", "終結孤單", "憨人"]}, "geometry": {"type": "Point", "coordinates": [113.9441034, 22.32151171]}}, {"type": "Feature", "properties": {"id": 70, "series": "jump", "date": "2008.05.17", "event": "回到地球表面", "city": "臺中臺體大田徑場", "loc": "台中", "songs": ["抓狂", "香水", "叫我第一名", "為愛而生", "一千個世紀", "雌雄同體", "愛情萬歲", "離開地球表面", "生命有一種絕對", "孫悟空", "小太陽", "恆星的恆心", "九號球", "離家出走", "闖", "生活", "瘋狂世界", "垃圾車", "天使", "愛情的模樣", "哄我入睡", "那些女孩教我的事(品冠)", "咿呀呀", "最重要的小事", "我又初戀了", "戀愛ING", "小護士", "洋蔥", "軋車", "溫柔", "倔強", "人生海海", "擁抱", "知足", "離開地球表面", "終結孤單", "出頭天", "反而", "志明與春嬌", "憨人"]}, "geometry": {"type": "Point", "coordinates": [120.6896593, 24.15171013]}}, {"type": "Feature", "properties": {"id": 71, "series": "jump", "date": "2008.04.30", "event": "回到地球表面", "city": "上海體育場", "loc": "上海", "songs": []}, "geometry": {"type": "Point", "coordinates": [121.4389144, 31.18161784]}}, {"type": "Feature", "properties": {"id": 72, "series": "jump", "date": "2008.04.26", "event": "回到地球表面", "city": "新加坡室內體育館", "loc": "新加坡", "songs": ["抓狂", "香水", "叫我第一名", "為愛而生", "一千個世紀", "雌雄同體", "愛情萬歲", "離開地球表面", "生命有一種絕對", "孫悟空", "小太陽", "恆星的恆心", "九號球", "離家出走", "闖", "生活", "瘋狂世界", "垃圾車", "生日快樂", "愛情的模樣", "咿呀呀", "最重要的小事", "我又初戀了", "戀愛ING", "終結孤單", "洋蔥", "軋車", "溫柔", "倔強", "人生海海", "天使", "知足", "離開地球表面"]}, "geometry": {"type": "Point", "coordinates": [103.8746515, 1.300924859]}}, {"type": "Feature", "properties": {"id": 73, "series": "jump", "date": "2008.04.19", "event": "離開地球表面", "city": "雲頂雲星劇場", "loc": "彭亨", "songs": []}, "geometry": {"type": "Point", "coordinates": [101.7944381, 3.422829099]}}, {"type": "Feature", "properties": {"id": 74, "series": "jump", "date": "2007.12.15", "event": "離開地球表面", "city": "天津體育館", "loc": "天津", "songs": []}, "geometry": {"type": "Point", "coordinates": [117.178558, 39.07742127]}}, {"type": "Feature", "properties": {"id": 75, "series": "jump", "date": "2007.10.20", "event": "離開地球表面", "city": "上海體育場", "loc": "上海", "songs": ["武裝", "香水", "風若吹", "為愛而生", "晚安地球人", "瘋狂世界", "抓狂", "雌雄同體", "離開地球表面", "透露", "相信", "天使", "摩托車日記", "孫悟空", "阿姆斯壯", "約翰藍儂", "我", "生日快樂", "年輕就要對味", "闖上天", "知足", "擁抱 feat. 陳綺貞", "私奔到月球 feat. 陳綺貞", "旅行的意義(陳綺貞)", "心動", "最重要的小事", "我又初戀了", "戀愛ING", "終結孤單", "聽不到", "軋車", "溫柔", "鹹魚", "人生海海", "Paradise", "倔強"]}, "geometry": {"type": "Point", "coordinates": [121.4384531, 31.18170045]}}, {"type": "Feature", "properties": {"id": 76, "series": "jump", "date": "2007.10.13", "event": "離開地球表面", "city": "成都四川省體育館", "loc": "成都", "songs": ["武裝", "香水", "風若吹", "為愛而生", "晚安地球人", "瘋狂世界", "抓狂", "雌雄同體", "離開地球表面", "透露", "相信", "天使", "摩托車日記", "孫悟空", "阿姆斯壯", "我", "年輕就要對味", "知足", "擁抱", "怎麼辦", "戀愛ING", "終結孤單", "聽不到", "軋車", "溫柔", "鹹魚", "人生海海", "Paradise", "倔強", "離開地球表面"]}, "geometry": {"type": "Point", "coordinates": [104.0662663, 30.63143501]}}, {"type": "Feature", "properties": {"id": 77, "series": "jump", "date": "2007.10.07", "event": "離開地球表面", "city": "東京 Zepp Tokyo", "loc": "東京", "songs": ["武裝", "香水", "風若吹", "為愛而生", "晚安地球人", "瘋狂世界", "雌雄同體", "離開地球表面", "透露", "I Love You無望", "天使", "垃圾車", "知足", "擁抱", "彩虹", "最重要的小事", "我又初戀了", "戀愛ING", "終結孤單", "志明與春嬌", "軋車", "溫柔", "憨人", "人生海海", "Paradise", "倔強", "離開地球表面"]}, "geometry": {"type": "Point", "coordinates": [139.7829124, 35.62606028]}}, {"type": "Feature", "properties": {"id": 78, "series": "jump", "date": "2007.09.30", "event": "離開地球表面", "city": "湖南國際會展中心", "loc": "長沙", "songs": ["武裝", "香水", "風若吹", "為愛而生", "雌雄同體", "抓狂", "離開地球表面", "透露", "牙關", "天使", "摩托車日記", "孫悟空", "阿姆斯壯", "晚安地球人", "瘋狂世界", "約翰藍儂", "我", "年輕就要對味", "知足", "擁抱 feat. 梁靜茹", "親親 feat. 梁靜茹", "野百合也有春天", "最重要的小事", "我又初戀了", "戀愛ING", "終結孤單", "聽不到", "溫柔", "軋車", "鹹魚", "人生海海", "Paradise", "倔強", "離開地球表面"]}, "geometry": {"type": "Point", "coordinates": [113.0511034, 28.23394682]}}, {"type": "Feature", "properties": {"id": 79, "series": "jump", "date": "2007.09.01", "event": "離開地球表面", "city": "溫哥華 Plaza of Nations ", "loc": "溫哥華", "songs": []}, "geometry": {"type": "Point", "coordinates": [-123.109852, 49.27505597]}}, {"type": "Feature", "properties": {"id": 80, "series": "jump", "date": "2007.08.26", "event": "離開地球表面", "city": "洛杉磯 Shrine Auditorium", "loc": "洛杉磯", "songs": []}, "geometry": {"type": "Point", "coordinates": [-118.2811806, 34.02349759]}}, {"type": "Feature", "properties": {"id": 81, "series": "jump", "date": "2007.08.24", "event": "離開地球表面", "city": "多倫多 Harbourfront Centre", "loc": "多倫多", "songs": []}, "geometry": {"type": "Point", "coordinates": [-79.38283313, 43.6392932]}}, {"type": "Feature", "properties": {"id": 82, "series": "jump", "date": "2007.08.05", "event": "離開地球表面", "city": "北京展覽館劇場", "loc": "北京D2", "songs": ["武裝", "香水", "風若吹", "軋車", "為愛而生", "晚安地球人", "瘋狂世界", "抓狂", "雌雄同體", "離開地球表面", "透露", "I Love You無望", "天使", "摩托車日記", "孫悟空", "阿姆斯壯", "約翰藍儂", "我", "年輕就要對味", "寵上天", "知足", "擁抱", "外面的世界", "最重要的小事", "我又初戀了", "戀愛ING", "終結孤單", "聽不到", "溫柔", "天天想你", "鹹魚", "人生海海", "Paradise", "倔強", "離開地球表面"]}, "geometry": {"type": "Point", "coordinates": [116.3442153, 39.94184249]}}, {"type": "Feature", "properties": {"id": 83, "series": "jump", "date": "2007.08.04", "event": "離開地球表面", "city": "北京展覽館劇場", "loc": "北京D1", "songs": ["武裝", "香水", "風若吹", "軋車", "為愛而生", "晚安地球人", "瘋狂世界", "抓狂", "雌雄同體", "離開地球表面", "透露", "I Love You無望", "天使", "摩托車日記", "孫悟空", "阿姆斯壯", "約翰藍儂", "我", "年輕就要對味", "寵上天", "知足", "擁抱", "旅行的意義", "最重要的小事", "我又初戀了", "戀愛ING", "終結孤單", "溫柔", "鹹魚", "人生海海", "Paradise", "倔強", "離開地球表面"]}, "geometry": {"type": "Point", "coordinates": [116.3442153, 39.94184249]}}, {"type": "Feature", "properties": {"id": 84, "series": "jump", "date": "2007.07.22", "event": "離開地球表面", "city": "臺北小巨蛋", "loc": "台北D3", "songs": ["武裝", "香水", "風若吹", "軋車", "為愛而生", "晚安地球人", "瘋狂世界", "抓狂", "雌雄同體", "離開地球表面", "透露", "I Love You無望", "天使", "摩托車日記", "孫悟空", "阿姆斯壯", "約翰藍儂", "我", "垃圾車", "寵上天", "知足", "擁抱 feat. 張惠妹", "Bad Boy feat. 張惠妹", "永遠的快樂 (張惠妹)", "風箏", "最重要的小事", "我又初戀了", "戀愛ING", "終結孤單", "志明與春嬌", "溫柔", "憨人", "人生海海", "Paradise", "倔強", "離開地球表面"]}, "geometry": {"type": "Point", "coordinates": [121.549655, 25.05133786]}}, {"type": "Feature", "properties": {"id": 85, "series": "jump", "date": "2007.07.21", "event": "離開地球表面", "city": "臺北小巨蛋", "loc": "台北D2", "songs": ["武裝", "香水", "風若吹", "軋車", "為愛而生", "晚安地球人", "瘋狂世界", "抓狂", "雌雄同體", "離開地球表面", "透露", "I Love You無望", "天使", "摩托車日記", "孫悟空", "阿姆斯壯", "約翰藍儂", "我", "垃圾車", "寵上天", "知足", "擁抱 feat. 梁靜茹", "志明與春嬌 feat. 梁靜茹", "親親", "愛的箴言", "最重要的小事", "我又初戀了", "戀愛ING", "終結孤單", "聽不到", "溫柔", "憨人", "人生海海", "Paradise", "倔強"]}, "geometry": {"type": "Point", "coordinates": [121.549655, 25.05133786]}}, {"type": "Feature", "properties": {"id": 86, "series": "jump", "date": "2007.07.20", "event": "離開地球表面", "city": "臺北小巨蛋", "loc": "台北D1", "songs": ["武裝", "香水", "風若吹", "軋車", "為愛而生", "晚安地球人", "瘋狂世界", "抓狂", "雌雄同體", "離開地球表面", "透露", "I Love You無望", "天使", "摩托車日記", "孫悟空", "阿姆斯壯", "約翰藍儂", "我", "垃圾車", "寵上天", "知足", "擁抱 feat. 陳綺貞", "私奔到月球 feat. 陳綺貞", "小步舞曲 (陳綺貞)", "愛的代價 (陳綺貞)", "最重要的小事", "我又初戀了", "戀愛ING", "終結孤單", "志明與春嬌", "溫柔", "憨人", "人生海海", "Paradise", "倔強"]}, "geometry": {"type": "Point", "coordinates": [121.549655, 25.05133786]}}, {"type": "Feature", "properties": {"id": 87, "series": "jump", "date": "2007.07.07", "event": "離開地球表面", "city": "廣州天河體育館", "loc": "廣州", "songs": ["武裝", "香水", "風若吹", "軋車", "為愛而生", "晚安地球人", "瘋狂世界", "雌雄同體", "離開地球表面", "透露", "I Love You無望", "天使", "摩托車日記", "孫悟空", "阿姆斯壯", "約翰藍儂", "我", "垃圾車", "寵上天", "知足", "一千個世紀", "擁抱", "情人 feat. 黃家強", "夢紅樓 (黃家強)", "Lonely Christmas", "最重要的小事", "我又初戀了", "戀愛ING", "終結孤單", "溫柔", "鹹魚", "人生海海", "Paradise", "倔強"]}, "geometry": {"type": "Point", "coordinates": [113.3237063, 23.13550022]}}, {"type": "Feature", "properties": {"id": 88, "series": "jump", "date": "2007.06.02", "event": "離開地球表面", "city": "新加坡博覽中心", "loc": "新加坡", "songs": ["武裝", "香水", "風若吹", "軋車", "為愛而生", "晚安地球人", "瘋狂世界", "透露", "雌雄同體", "離開地球表面", "I Love You無望", "天使", "摩托車日記", "孫悟空", "阿姆斯壯", "約翰藍儂", "我", "垃圾車", "擁抱", "Yellow Submarine", "最重要的小事", "一千個世紀", "心中無別人", "我又初戀了", "戀愛ING", "寵上天", "終結孤單", "知足", "志明與春嬌", "憨人", "溫柔", "人生海海", "Paradise", "倔強"]}, "geometry": {"type": "Point", "coordinates": [103.9602558, 1.333728892]}}, {"type": "Feature", "properties": {"id": 89, "series": "jump", "date": "2007.05.19", "event": "離開地球表面", "city": "廈門嘉庚體育館", "loc": "廈門", "songs": ["武裝", "香水", "風若吹", "軋車", "為愛而生", "晚安地球人", "瘋狂世界", "雌雄同體", "離開地球表面", "透露", "I Love You無望", "天使", "摩托車日記", "孫悟空", "阿姆斯壯", "約翰藍儂", "我", "垃圾車", "寵上天", "知足", "一千個世紀", "擁抱", "天天想你", "最重要的小事", "我又初戀了", "戀愛ING", "終結孤單", "心中無別人", "志明與春嬌", "溫柔", "憨人", "Paradise", "倔強"]}, "geometry": {"type": "Point", "coordinates": [118.1085859, 24.5878446]}}, {"type": "Feature", "properties": {"id": 90, "series": "jump", "date": "2007.05.05", "event": "離開地球表面", "city": "香港紅磡體育館", "loc": "香港D2", "songs": ["武裝", "香水", "風若吹", "軋車", "為愛而生", "晚安地球人", "瘋狂世界", "雌雄同體", "離開地球表面", "透露", "時光機", "天使", "摩托車日記", "孫悟空", "阿姆斯壯", "約翰藍儂", "我", "垃圾車", "寵上天", "知足", "一千個世紀", "Loving You", "擁抱", "追", "最重要的小事", "我又初戀了", "戀愛ING", "終結孤單", "溫柔", "憨人", "人生海海", "Paradise", "倔強"]}, "geometry": {"type": "Point", "coordinates": [114.1820313, 22.30144771]}}, {"type": "Feature", "properties": {"id": 91, "series": "jump", "date": "2007.05.04", "event": "離開地球表面", "city": "香港紅磡體育館", "loc": "香港D1", "songs": ["武裝", "香水", "風若吹", "軋車", "為愛而生", "晚安地球人", "瘋狂世界", "雌雄同體", "離開地球表面", "透露", "時光機", "天使", "摩托車日記", "孫悟空", "阿姆斯壯", "約翰藍儂", "我", "垃圾車", "知足", "一千個世紀", "Loving You", "擁抱", "最重要的小事", "我又初戀了", "戀愛ING", "終結孤單", "志明與春嬌", "溫柔", "憨人", "人生海海", "Paradise", "倔強"]}, "geometry": {"type": "Point", "coordinates": [114.1820313, 22.30144771]}}, {"type": "Feature", "properties": {"id": 92, "series": "just_love_it", "date": "2014.08.08", "event": "Just Love It!", "city": "宜蘭中興文化創意園區", "loc": "宜蘭", "songs": ["擁抱", "瘋狂世界", "三個傻瓜", "賭神", "相信", "步步", "最重要的小事", "真實故事改編", "我不願讓你一個人", "由我們主宰", "OAOA", "溫柔", "戀愛ING", "透露", "向前走", "心中無別人", "你是唯一", "I Love You無望 feat. 亂彈阿翔", "良心(亂彈阿翔)", "承諾(亂彈阿翔)", "知足", "入陣曲", "Do You Ever Shine？", "離開地球表面", "傷心的人別聽慢歌", "九號球", "人生海海", "乾杯", "愛情的模樣", "突然好想你", "憨人", "生命有一種絕對"]}, "geometry": {"type": "Point", "coordinates": [121.7723133, 24.69440219]}}, {"type": "Feature", "properties": {"id": 93, "series": "just_love_it", "date": "2014.08.05", "event": "Just Love It!", "city": "深圳灣體育中心", "loc": "深圳", "songs": ["擁抱", "瘋狂世界", "三個傻瓜", "賭神", "相信", "步步", "最重要的小事", "真實故事改編", "愛情的模樣", "我不願讓你一個人", "由我們主宰", "OAOA", "溫柔", "倔強", "你是唯一", "I Love You無望 feat. 亂彈阿翔", "良心(亂彈阿翔)", "承諾(亂彈阿翔)", "知足", "入陣曲", "離開地球表面", "傷心的人別聽慢歌", "九號球", "人生海海", "乾杯", "生命有一種絕對", "憨人"]}, "geometry": {"type": "Point", "coordinates": [113.9492968, 22.51800863]}}, {"type": "Feature", "properties": {"id": 94, "series": "just_love_it", "date": "2014.08.03", "event": "Just Love It!", "city": "北京萬事達中心", "loc": "北京", "songs": ["擁抱", "瘋狂世界", "三個傻瓜", "賭神", "相信", "步步", "最重要的小事", "真實故事改編", "愛情的模樣", "我不願讓你一個人", "由我們主宰", "OAOA", "溫柔", "倔強", "你是唯一", "I Love You無望 feat. 亂彈阿翔", "承諾(亂彈阿翔)", "知足", "入陣曲", "離開地球表面", "傷心的人別聽慢歌", "九號球", "人生海海", "乾杯", "生命有一種絕對", "憨人"]}, "geometry": {"type": "Point", "coordinates": [116.2815653, 39.91112986]}}, {"type": "Feature", "properties": {"id": 95, "series": "just_love_it", "date": "2014.07.27", "event": "Just Love It!", "city": "高雄巨蛋", "loc": "高雄", "songs": ["擁抱", "瘋狂世界", "生存以上 生活以下", "三個傻瓜", "賭神", "相信", "步步", "最重要的小事", "倉頡", "笑忘歌", "我不願讓你一個人", "由我們主宰", "OAOA", "溫柔", "向前走", "心中無別人", "你是唯一", "I Love You無望 feat. 亂彈阿翔", "良心(亂彈阿翔)", "承諾(亂彈阿翔)", "知足", "入陣曲", "Do You Ever Shine？", "離開地球表面", "傷心的人別聽慢歌", "九號球", "人生海海", "乾杯", "突然好想你", "洋蔥", "憨人", "愛情的模樣", "戀愛ING"]}, "geometry": {"type": "Point", "coordinates": [120.3029252, 22.6689738]}}, {"type": "Feature", "properties": {"id": 96, "series": "just_love_it", "date": "2013.07.07", "event": "Just Love It!", "city": "臺北花博公園入口廣場", "loc": "台北", "songs": ["擁抱", "夜訪吸血鬼", "歪腰", "我不願讓你一個人", "T 121 3121", "瘋狂世界", "心中無別人", "透露", "OAOA", "離開地球表面", "最重要的小事", "咿呀呀", "九號球", "傷心的人別聽慢歌", "乾杯", "突然好想你", "志明與春嬌", "戀愛ING"]}, "geometry": {"type": "Point", "coordinates": [121.5224573, 25.07179018]}}, {"type": "Feature", "properties": {"id": 97, "series": "just_love_it", "date": "2013.07.05", "event": "Just Love It!", "city": "新竹縣政府廣場", "loc": "新竹", "songs": ["擁抱", "夜訪吸血鬼", "歪腰", "我不願讓你一個人", "T 121 3121", "最重要的小事", "瘋狂世界", "心中無別人", "透露", "離開地球表面", "潔癖 feat. 嚴爵", "咿呀呀", "洗衣機", "乾杯", "傷心的人別聽慢歌", "突然好想你", "志明與春嬌", "戀愛ING"]}, "geometry": {"type": "Point", "coordinates": [121.0129818, 24.82709554]}}, {"type": "Feature", "properties": {"id": 98, "series": "just_love_it", "date": "2013.06.01", "event": "Just Love It!", "city": "臺中臺體大田徑場", "loc": "台中", "songs": ["擁抱", "夜訪吸血鬼", "歪腰", "我不願讓你一個人", "T 121 3121", "你知道我在等你嗎", "心愛妹妹的眼睛", "恰似你的溫柔", "最重要的小事", "心中無別人", "有些事現在不做", "透露", "OAOA", "離開地球表面", "潔癖 feat. 嚴爵", "咿呀呀", "洗衣機", "墓仔埔也敢去", "乾杯", "軋車", "突然好想你", "志明與春嬌", "戀愛ING"]}, "geometry": {"type": "Point", "coordinates": [120.6896593, 24.15171013]}}, {"type": "Feature", "properties": {"id": 99, "series": "just_love_it", "date": "2013.05.01", "event": "Just Love It!", "city": "廣州國際體育演藝中心", "loc": "廣州", "songs": []}, "geometry": {"type": "Point", "coordinates": [113.4835795, 23.17648205]}}, {"type": "Feature", "properties": {"id": 100, "series": "just_love_it", "date": "2013.04.06", "event": "Just Love It!", "city": "上海梅賽德斯奔馳文化中心", "loc": "上海", "songs": []}, "geometry": {"type": "Point", "coordinates": [121.4982313, 31.1799138]}}, {"type": "Feature", "properties": {"id": 101, "series": "just_love_it", "date": "2013.04.05", "event": "Just Love It!", "city": "北京首都體育館", "loc": "北京", "songs": ["最重要的小事", "天機 feat. MP魔幻力量", "Loving You", "擁抱", "夜訪吸血鬼", "羅密歐與茱麗葉", "歪腰", "我不願讓你一個人", "OAOA（丟掉名字性別）", "離開地球表面", "透露", "T 121 3121", "志明與春嬌", "反而", "心中無別人", "洗衣機", "乾杯", "起來", "突然好想你", "洋蔥", "擁抱 feat. 劉若英", "後來 feat. 劉若英", "戀愛ING"]}, "geometry": {"type": "Point", "coordinates": [116.327564, 39.94031905]}}, {"type": "Feature", "properties": {"id": 102, "series": "just_love_it", "date": "2012.03.03", "event": "Just Love It!", "city": "臺中臺體大田徑場", "loc": "台中", "songs": ["思慕的人", "麥來亂", "心中無別人", "軋車", "知足", "星空", "戀愛ING", "洗衣機", "這個世界", "天使", "我不願讓你一個人 feat. 蔡依林", "米老鼠", "夢交響", "超人", "最重要的小事", "愛是對的", "石頭", "倉頡", "洋蔥", "歪腰", "三個傻瓜", "T 121 3121", "乾杯", "如煙", "有些事現在不做", "第二人生", "後青春期的詩", "笑忘歌", "突然好想你", "對面的女孩看過來 feat. 任賢齊", "對摺 feat. 任賢齊", "OAOA", "離開地球表面", "擁抱", "終結孤單", "志明與春嬌", "憨人"]}, "geometry": {"type": "Point", "coordinates": [120.6896593, 24.15171013]}}, {"type": "Feature", "properties": {"id": 103, "series": "just_rock_it", "date": "2016.11.05", "event": "Just Rock It!", "city": "長沙賀龍體育中心體育場", "loc": "長沙", "songs": ["Do You Ever Shine？(國)", "三個傻瓜", "你不是真正的快樂", "為愛而生", "孫悟空", "雌雄同體", "人生海海", "終結孤單", "軋車", "離開地球表面", "諾亞方舟", "知足", "瘋狂世界", "垃圾車", "志明與春嬌", "笑忘歌", "如煙", "任意門", "好好", "乾杯", "將軍令", "入陣曲", "我不願讓你一個人", "OAOA", "如果我們不曾相遇", "頑固", "倔強", "派對動物", "傷心的人別聽慢歌", "溫柔", "天天想你", "後來的我們", "突然好想你", "戀愛ING", "洋蔥", "聽不到"]}, "geometry": {"type": "Point", "coordinates": [112.9823032, 28.17896181]}}, {"type": "Feature", "properties": {"id": 104, "series": "just_rock_it", "date": "2016.10.29", "event": "Just Rock It!", "city": "泉州海峽體育中心體育場", "loc": "泉州", "songs": ["Do You Ever Shine？(國)", "三個傻瓜", "你不是真正的快樂", "為愛而生", "孫悟空", "雌雄同體", "人生海海", "終結孤單", "軋車", "離開地球表面", "諾亞方舟", "知足", "瘋狂世界", "笑忘歌", "如煙", "志明與春嬌", "任意門", "好好", "諾亞方舟", "乾杯", "將軍令", "入陣曲", "我不願讓你一個人", "OAOA", "如果我們不曾相遇", "頑固", "倔強", "派對動物", "傷心的人別聽慢歌", "溫柔", "後來的我們", "突然好想你", "戀愛ING", "I Love You無望", "憨人", "你說那C和弦就是"]}, "geometry": {"type": "Point", "coordinates": [118.660938, 24.92659757]}}, {"type": "Feature", "properties": {"id": 105, "series": "just_rock_it", "date": "2016.10.22", "event": "Just Rock It!", "city": "吉隆坡默迪卡體育場", "loc": "吉隆坡", "songs": ["Do You Ever Shine？(國)", "三個傻瓜", "你不是真正的快樂", "為愛而生", "孫悟空", "雌雄同體", "人生海海", "終結孤單", "軋車", "離開地球表面", "諾亞方舟", "知足", "瘋狂世界", "笑忘歌", "如煙", "志明與春嬌", "好好", "相信", "乾杯", "將軍令", "入陣曲", "我不願讓你一個人", "OAOA", "如果我們不曾相遇", "任意門", "頑固", "倔強", "派對動物", "傷心的人別聽慢歌", "溫柔", "後來的我們", "突然好想你", "戀愛ING", "製造浪漫", "洋蔥", "憨人"]}, "geometry": {"type": "Point", "coordinates": [101.7013695, 3.1393883]}}, {"type": "Feature", "properties": {"id": 106, "series": "just_rock_it", "date": "2016.10.07", "event": "Just Rock It!", "city": "上海體育場", "loc": "上海D3", "songs": ["Do You Ever Shine？(國)", "三個傻瓜", "你不是真正的快樂", "為愛而生", "孫悟空", "雌雄同體", "人生海海", "終結孤單", "軋車", "離開地球表面", "諾亞方舟", "知足", "瘋狂世界", "笑忘歌", "如煙", "你說那C和弦就是", "好好", "乾杯", "將軍令", "入陣曲", "我不願讓你一個人", "OAOA", "如果我們不曾相遇", "任意門", "頑固", "倔強", "派對動物", "傷心的人別聽慢歌", "溫柔", "後來的我們", "突然好想你", "轉眼", "洋蔥", "戀愛ING", "憨人"]}, "geometry": {"type": "Point", "coordinates": [121.4417683, 31.18127364]}}, {"type": "Feature", "properties": {"id": 107, "series": "just_rock_it", "date": "2016.10.05", "event": "Just Rock It!", "city": "上海體育場", "loc": "上海D2", "songs": ["Do You Ever Shine？(國)", "三個傻瓜", "你不是真正的快樂", "為愛而生", "超人", "雌雄同體", "候鳥", "終結孤單", "軋車", "離開地球表面", "諾亞方舟", "知足", "瘋狂世界", "志明與春嬌", "夜訪吸血鬼", "笑忘歌", "盛夏光年", "好好", "乾杯", "將軍令", "入陣曲", "我不願讓你一個人", "OAOA", "如果我們不曾相遇", "任意門", "頑固", "倔強", "派對動物", "傷心的人別聽慢歌", "溫柔", "後來的我們", "突然好想你", "兄妹", "人生有限公司", "戀愛ING", "對面的女孩看過來 feat. 任賢齊", "聽不到"]}, "geometry": {"type": "Point", "coordinates": [121.4418005, 31.18131953]}}, {"type": "Feature", "properties": {"id": 108, "series": "just_rock_it", "date": "2016.10.04", "event": "Just Rock It!", "city": "上海體育場", "loc": "上海D1", "songs": ["Do You Ever Shine？(國)", "三個傻瓜", "你不是真正的快樂", "為愛而生", "孫悟空", "生命有一種絕對", "人生海海", "終結孤單", "軋車", "離開地球表面", "諾亞方舟", "知足", "瘋狂世界", "笑忘歌", "如煙", "好好", "乾杯", "將軍令", "入陣曲", "我不願讓你一個人", "OAOA", "如果我們不曾相遇", "頑固", "倔強", "派對動物", "傷心的人別聽慢歌", "溫柔", "後來的我們", "突然好想你", "憨人", "任意門", "戀愛ING", "擁抱"]}, "geometry": {"type": "Point", "coordinates": [121.44194, 31.18131035]}}, {"type": "Feature", "properties": {"id": 109, "series": "just_rock_it", "date": "2016.10.02", "event": "Just Rock It!", "city": "南京奧林匹克體育中心體育場", "loc": "南京D2", "songs": ["Do You Ever Shine？(國)", "三個傻瓜", "你不是真正的快樂", "為愛而生", "孫悟空", "雌雄同體", "人生海海", "終結孤單", "軋車", "離開地球表面", "諾亞方舟", "知足", "瘋狂世界", "笑忘歌", "盛夏光年", "好好", "乾杯", "將軍令", "入陣曲", "我不願讓你一個人", "OAOA", "如果我們不曾相遇", "頑固", "倔強", "派對動物", "傷心的人別聽慢歌", "溫柔", "後來的我們", "突然好想你", "洋蔥", "戀愛ING", "勇敢(國)", "擁抱", "戀愛ING"]}, "geometry": {"type": "Point", "coordinates": [118.7249226, 32.00841915]}}, {"type": "Feature", "properties": {"id": 110, "series": "just_rock_it", "date": "2016.09.30", "event": "Just Rock It!", "city": "南京奧林匹克體育中心體育場", "loc": "南京D1", "songs": ["Do You Ever Shine？(國)", "三個傻瓜", "你不是真正的快樂", "為愛而生", "孫悟空", "雌雄同體", "人生海海", "終結孤單", "軋車", "離開地球表面", "諾亞方舟", "知足", "瘋狂世界", "笑忘歌", "如煙", "好好", "乾杯", "將軍令", "入陣曲", "我不願讓你一個人", "如果我們不曾相遇", "頑固", "倔強", "派對動物", "傷心的人別聽慢歌", "溫柔", "後來的我們", "突然好想你", "OAOA", "轉眼", "聽不到", "戀愛ING"]}, "geometry": {"type": "Point", "coordinates": [118.7249302, 32.00847061]}}, {"type": "Feature", "properties": {"id": 111, "series": "just_rock_it", "date": "2016.09.24", "event": "Just Rock It!", "city": "深圳大運中心體育場", "loc": "深圳D2", "songs": ["Do You Ever Shine？(國)", "三個傻瓜", "你不是真正的快樂", "為愛而生", "孫悟空", "雌雄同體", "人生海海", "終結孤單", "軋車", "離開地球表面", "諾亞方舟", "知足", "瘋狂世界", "笑忘歌", "盛夏光年", "好好", "乾杯", "將軍令", "入陣曲", "我不願讓你一個人", "如果我們不曾相遇", "頑固", "倔強", "派對動物", "傷心的人別聽慢歌", "溫柔", "後來的我們", "突然好想你", "OAOA", "聽不到", "戀愛ING"]}, "geometry": {"type": "Point", "coordinates": [114.2196707, 22.69321839]}}, {"type": "Feature", "properties": {"id": 112, "series": "just_rock_it", "date": "2016.09.23", "event": "Just Rock It!", "city": "深圳大運中心體育場", "loc": "深圳D1", "songs": ["Do You Ever Shine？(國)", "三個傻瓜", "你不是真正的快樂", "為愛而生", "孫悟空", "雌雄同體", "人生海海", "終結孤單", "軋車", "離開地球表面", "諾亞方舟", "知足", "瘋狂世界", "笑忘歌", "如煙", "好好", "乾杯", "將軍令", "入陣曲", "我不願讓你一個人", "如果我們不曾相遇", "頑固", "倔強", "派對動物", "傷心的人別聽慢歌", "溫柔", "後來的我們", "突然好想你", "OAOA", "洋蔥", "戀愛ING"]}, "geometry": {"type": "Point", "coordinates": [114.2194666, 22.69324193]}}, {"type": "Feature", "properties": {"id": 113, "series": "just_rock_it", "date": "2016.09.17", "event": "Just Rock It!", "city": "南昌國際體育中心體育場", "loc": "南昌", "songs": ["Do You Ever Shine？(國)", "三個傻瓜", "你不是真正的快樂", "為愛而生", "孫悟空", "雌雄同體", "人生海海", "終結孤單", "軋車", "離開地球表面", "諾亞方舟", "知足", "瘋狂世界", "笑忘歌", "如煙", "好好", "乾杯", "將軍令", "入陣曲", "我不願讓你一個人", "如果我們不曾相遇", "頑固", "倔強", "派對動物", "傷心的人別聽慢歌", "溫柔", "後來的我們", "突然好想你", "洋蔥", "OAOA", "戀愛ING"]}, "geometry": {"type": "Point", "coordinates": [115.8205183, 28.62196243]}}, {"type": "Feature", "properties": {"id": 114, "series": "just_rock_it", "date": "2016.09.10", "event": "Just Rock It!", "city": "成都市體育中心體育場", "loc": "成都", "songs": ["Do You Ever Shine？(國)", "三個傻瓜", "你不是真正的快樂", "為愛而生", "孫悟空", "雌雄同體", "人生海海", "終結孤單", "軋車", "離開地球表面", "諾亞方舟", "知足", "瘋狂世界", "笑忘歌", "如煙", "你說那C和弦就是", "好好", "乾杯", "將軍令", "入陣曲", "我不願讓你一個人", "如果我們不曾相遇", "任意門", "頑固", "倔強", "派對動物", "傷心的人別聽慢歌", "溫柔", "後來的我們", "突然好想你", "OAOA", "戀愛ING"]}, "geometry": {"type": "Point", "coordinates": [104.0677197, 30.66352787]}}, {"type": "Feature", "properties": {"id": 115, "series": "just_rock_it", "date": "2016.09.03", "event": "Just Rock It!", "city": "西安陝西省體育場", "loc": "西安", "songs": ["Do You Ever Shine？(國)", "三個傻瓜", "你不是真正的快樂", "為愛而生", "孫悟空", "雌雄同體", "人生海海", "終結孤單", "軋車", "離開地球表面", "諾亞方舟", "知足", "瘋狂世界", "笑忘歌", "如煙", "你說那C和弦就是", "好好", "乾杯", "將軍令", "入陣曲", "我不願讓你一個人", "如果我們不曾相遇", "任意門", "頑固", "倔強", "派對動物", "傷心的人別聽慢歌", "溫柔", "後來的我們", "突然好想你", "戀愛ING", "OAOA"]}, "geometry": {"type": "Point", "coordinates": [108.941286, 34.23247387]}}, {"type": "Feature", "properties": {"id": 116, "series": "just_rock_it", "date": "2016.08.28", "event": "Just Rock It!", "city": "北京國家體育場(鳥巢)", "loc": "北京D3", "songs": ["Do You Ever Shine？(國)", "三個傻瓜", "你不是真正的快樂", "為愛而生", "孫悟空", "雌雄同體", "人生海海", "終結孤單", "軋車", "離開地球表面", "諾亞方舟", "知足", "瘋狂世界", "笑忘歌", "如煙", "你說那C和弦就是", "好好", "乾杯", "將軍令", "入陣曲", "我不願讓你一個人", "任意門", "憨人", "鹹魚", "派對動物", "傷心的人別聽慢歌", "如果我們不曾相遇", "溫柔", "後來的我們", "突然好想你", "頑固", "倔強", "戀愛ING", "轉眼", "OAOA"]}, "geometry": {"type": "Point", "coordinates": [116.3972193, 39.99312391]}}, {"type": "Feature", "properties": {"id": 117, "series": "just_rock_it", "date": "2016.08.27", "event": "Just Rock It!", "city": "北京國家體育場(鳥巢)", "loc": "北京D2", "songs": ["Do You Ever Shine？(國)", "三個傻瓜", "你不是真正的快樂", "為愛而生", "孫悟空", "雌雄同體", "人生海海", "終結孤單", "軋車", "離開地球表面", "諾亞方舟", "知足", "瘋狂世界", "笑忘歌", "如煙", "你說那C和弦就是", "好好", "乾杯", "將軍令", "入陣曲", "我不願讓你一個人", "任意門", "憨人", "鹹魚", "派對動物", "傷心的人別聽慢歌", "溫柔", "後來的我們", "突然好想你", "頑固", "倔強", "如果我們不曾相遇", "OAOA", "擁抱", "戀愛ING"]}, "geometry": {"type": "Point", "coordinates": [116.3970906, 39.99304171]}}, {"type": "Feature", "properties": {"id": 118, "series": "just_rock_it", "date": "2016.08.26", "event": "Just Rock It!", "city": "北京國家體育場(鳥巢)", "loc": "北京D1", "songs": ["Do You Ever Shine？(國)", "三個傻瓜", "你不是真正的快樂", "為愛而生", "孫悟空", "雌雄同體", "人生海海", "終結孤單", "軋車", "離開地球表面", "諾亞方舟", "知足", "瘋狂世界", "笑忘歌", "如煙", "好好", "乾杯", "將軍令", "入陣曲", "我不願讓你一個人", "憨人", "任意門", "倔強", "派對動物", "傷心的人別聽慢歌", "如果我們不曾相遇", "溫柔", "後來的我們", "突然好想你", "頑固", "OAOA", "戀愛ING", "洋蔥", "聽不到"]}, "geometry": {"type": "Point", "coordinates": [116.3971764, 39.99304171]}}, {"type": "Feature", "properties": {"id": 119, "series": "just_rock_it", "date": "2016.08.14", "event": "Just Rock It!", "city": "高雄國家體育場", "loc": "高雄D2", "songs": ["Do You Ever Shine？(國)", "三個傻瓜", "你不是真正的快樂", "為愛而生", "孫悟空", "生命有一種絕對", "永遠的永遠", "終結孤單", "軋車", "離開地球表面", "最重要的小事", "知足", "瘋狂世界", "笑忘歌", "盛夏光年", "你說那C和弦就是", "頑固", "乾杯", "將軍令", "入陣曲", "我不願讓你一個人", "勇敢", "任意門", "人生海海", "派對動物", "傷心的人別聽慢歌", "好好", "如果我們不曾相遇", "溫柔", "後來的我們", "突然好想你", "兄弟", "人生有限公司", "OAOA", "憨人", "戀愛ING"]}, "geometry": {"type": "Point", "coordinates": [120.2953129, 22.70337862]}}, {"type": "Feature", "properties": {"id": 120, "series": "just_rock_it", "date": "2016.08.13", "event": "Just Rock It!", "city": "高雄國家體育場", "loc": "高雄D1", "songs": ["Do You Ever Shine？(國)", "三個傻瓜", "你不是真正的快樂", "為愛而生", "超人", "雌雄同體", "永遠的永遠", "終結孤單", "軋車", "離開地球表面", "諾亞方舟", "知足", "瘋狂世界", "笑忘歌", "如煙", "頑固", "乾杯", "將軍令", "入陣曲", "我不願讓你一個人", "勇敢", "憨人", "任意門", "人生海海", "派對動物", "傷心的人別聽慢歌", "好好", "如果我們不曾相遇", "溫柔", "後來的我們", "突然好想你", "兄弟", "人生有限公司", "OAOA", "倔強", "轉眼", "最重要的小事", "戀愛ING"]}, "geometry": {"type": "Point", "coordinates": [120.2953129, 22.70337862]}}, {"type": "Feature", "properties": {"id": 121, "series": "just_rock_it", "date": "2016.08.06", "event": "Just Rock It!", "city": "新加坡室內體育館", "loc": "新加坡D2", "songs": ["Do You Ever Shine？(國)", "三個傻瓜", "你不是真正的快樂", "為愛而生", "超人", "雌雄同體", "候鳥", "終結孤單", "軋車", "離開地球表面", "諾亞方舟", "知足", "瘋狂世界", "志明與春嬌", "笑忘歌", "盛夏光年", "頑固", "乾杯", "將軍令", "入陣曲", "我不願讓你一個人", "勇敢", "憨人", "一顆蘋果", "人生海海", "派對動物", "傷心的人別聽慢歌", "如果我們不曾相遇", "溫柔", "後來的我們", "突然好想你", "兄弟", "人生有限公司", "OAOA", "倔強", "戀愛ING"]}, "geometry": {"type": "Point", "coordinates": [103.8746515, 1.300924859]}}, {"type": "Feature", "properties": {"id": 122, "series": "just_rock_it", "date": "2016.08.05", "event": "Just Rock It!", "city": "新加坡室內體育館", "loc": "新加坡D1", "songs": ["Do You Ever Shine？(國)", "三個傻瓜", "你不是真正的快樂", "為愛而生", "孫悟空", "生命有一種絕對", "候鳥", "終結孤單", "軋車", "離開地球表面", "諾亞方舟", "知足", "瘋狂世界", "笑忘歌", "如煙", "頑固", "乾杯", "將軍令", "入陣曲", "我不願讓你一個人", "勇敢", "憨人", "一顆蘋果", "人生海海", "派對動物", "傷心的人別聽慢歌", "如果我們不曾相遇", "溫柔", "後來的我們", "突然好想你", "兄弟", "人生有限公司", "OAOA", "倔強", "戀愛ING"]}, "geometry": {"type": "Point", "coordinates": [103.8746515, 1.300924859]}}, {"type": "Feature", "properties": {"id": 123, "series": "just_rock_it", "date": "2016.07.24", "event": "Just Rock It!", "city": "台北中信金融園區", "loc": "台北D2", "songs": ["Do You Ever Shine？(國)", "三個傻瓜", "你不是真正的快樂", "為愛而生", "超人", "雌雄同體", "候鳥", "終結孤單", "軋車", "離開地球表面", "諾亞方舟", "知足", "瘋狂世界", "笑忘歌", "如煙", "純真", "頑固", "乾杯", "將軍令", "入陣曲", "我不願讓你一個人", "勇敢(國)", "憨人", "一顆蘋果", "人生海海", "派對動物", "傷心的人別聽慢歌", "如果我們不曾相遇", "溫柔", "後來的我們", "突然好想你", "兄弟", "人生有限公司", "OAOA", "戀愛ING"]}, "geometry": {"type": "Point", "coordinates": [121.6181272, 25.05938876]}}, {"type": "Feature", "properties": {"id": 124, "series": "just_rock_it", "date": "2016.07.23", "event": "Just Rock It!", "city": "台北中信金融園區", "loc": "台北D1", "songs": ["Do You Ever Shine？(國)", "三個傻瓜", "夜訪吸血鬼", "為愛而生", "孫悟空", "生命有一種絕對", "候鳥", "叫我第一名", "軋車", "離開地球表面", "諾亞方舟", "知足", "瘋狂世界", "笑忘歌", "如煙", "小護士", "頑固", "乾杯", "將軍令", "入陣曲", "我不願讓你一個人", "勇敢", "憨人", "一顆蘋果", "派對動物", "傷心的人別聽慢歌", "後青春期的詩", "如果我們不曾相遇", "後來的我們", "突然好想你", "OAOA", "兄弟", "人生有限公司", "戀愛ING", "終結孤單"]}, "geometry": {"type": "Point", "coordinates": [121.6182002, 25.0593837]}}, {"type": "Feature", "properties": {"id": 125, "series": "just_rock_it", "date": "2016.06.01", "event": "Just Rock It!", "city": "香港紅磡體育館", "loc": "香港D10", "songs": ["Do You Ever Shine？(國)", "三個傻瓜", "夜訪吸血鬼", "為愛而生", "孫悟空", "雌雄同體", "候鳥", "叫我第一名", "軋車", "離開地球表面", "諾亞方舟", "擁抱", "瘋狂世界", "笑忘歌", "如煙", "小護士", "乾杯", "將軍令", "入陣曲", "我不願讓你一個人", "勇敢(國)", "憨人", "一顆蘋果", "派對動物", "傷心的人別聽慢歌", "溫柔", "最重要的小事", "倔強", "聽不到", "戀愛ING", "終結孤單"]}, "geometry": {"type": "Point", "coordinates": [114.1826872, 22.30157353]}}, {"type": "Feature", "properties": {"id": 126, "series": "just_rock_it", "date": "2016.05.31", "event": "Just Rock It!", "city": "香港紅磡體育館", "loc": "香港D9", "songs": ["Do You Ever Shine？(國)", "三個傻瓜", "夜訪吸血鬼", "為愛而生", "孫悟空", "雌雄同體", "候鳥", "叫我第一名", "軋車", "離開地球表面", "諾亞方舟", "知足", "瘋狂世界", "志明與春嬌", "心中無別人", "酒後的心聲", "愛拼才會贏", "垃圾車", "如煙", "製造浪漫", "墓仔埔也敢去", "小護士", "乾杯", "將軍令", "入陣曲", "我不願讓你一個人", "勇敢(國)", "憨人", "一顆蘋果", "派對動物", "傷心的人別聽慢歌", "溫柔", "九號球", "倔強", "擁抱", "戀愛ING"]}, "geometry": {"type": "Point", "coordinates": [114.1826872, 22.30157353]}}, {"type": "Feature", "properties": {"id": 127, "series": "just_rock_it", "date": "2016.05.29", "event": "Just Rock It!", "city": "香港紅磡體育館", "loc": "香港D8", "songs": ["Do You Ever Shine？(國)", "三個傻瓜", "夜訪吸血鬼", "為愛而生", "超人", "雌雄同體", "候鳥", "叫我第一名", "軋車", "離開地球表面", "諾亞方舟", "知足", "瘋狂世界", "垃圾車", "如煙", "小護士", "乾杯", "將軍令", "入陣曲", "我不願讓你一個人", "勇敢(國)", "憨人", "一顆蘋果", "派對動物", "傷心的人別聽慢歌", "突然好想你", "真實故事改編", "後來 feat. 劉若英", "戀愛ING feat. 劉若英", "倔強"]}, "geometry": {"type": "Point", "coordinates": [114.1826872, 22.30157353]}}, {"type": "Feature", "properties": {"id": 128, "series": "just_rock_it", "date": "2016.05.28", "event": "Just Rock It!", "city": "香港紅磡體育館", "loc": "香港D7", "songs": ["Do You Ever Shine？(國)", "三個傻瓜", "夜訪吸血鬼", "為愛而生", "孫悟空", "生命有一種絕對", "候鳥", "叫我第一名", "軋車", "離開地球表面", "諾亞方舟", "知足", "瘋狂世界", "你不是真正的快樂", "如煙", "小護士", "乾杯", "將軍令", "入陣曲", "我不願讓你一個人", "勇敢(國)", "憨人", "一顆蘋果", "派對動物", "傷心的人別聽慢歌", "後青春期的詩", "溫柔", "最重要的小事", "倔強", "戀愛ING"]}, "geometry": {"type": "Point", "coordinates": [114.1826872, 22.30157353]}}, {"type": "Feature", "properties": {"id": 129, "series": "just_rock_it", "date": "2016.05.27", "event": "Just Rock It!", "city": "香港紅磡體育館", "loc": "香港D6", "songs": ["Do You Ever Shine？(國)", "三個傻瓜", "夜訪吸血鬼", "為愛而生", "超人", "雌雄同體", "候鳥", "叫我第一名", "軋車", "離開地球表面", "諾亞方舟", "知足", "瘋狂世界", "志明與春嬌", "垃圾車", "愛拼才會贏", "盛夏光年", "如煙", "小護士", "乾杯", "將軍令", "入陣曲", "我不願讓你一個人", "勇敢(國)", "憨人", "一顆蘋果", "派對動物", "傷心的人別聽慢歌", "後青春期的詩", "突然好想你", "純真", "倔強", "戀愛ING feat. 任賢齊", "對面的女孩看過來 feat. 任賢齊", "OAOA"]}, "geometry": {"type": "Point", "coordinates": [114.1826872, 22.30157353]}}, {"type": "Feature", "properties": {"id": 130, "series": "just_rock_it", "date": "2016.05.25", "event": "Just Rock It!", "city": "香港紅磡體育館", "loc": "香港D5", "songs": ["Do You Ever Shine？(國)", "三個傻瓜", "夜訪吸血鬼", "為愛而生", "孫悟空", "生命有一種絕對", "候鳥", "叫我第一名", "軋車", "離開地球表面", "諾亞方舟", "知足", "瘋狂世界", "你不是真正的快樂", "如煙", "純真", "製造浪漫", "乾杯", "將軍令", "入陣曲", "我不願讓你一個人", "勇敢(國)", "憨人", "一顆蘋果", "派對動物", "傷心的人別聽慢歌", "後青春期的詩", "突然好想你", "九號球", "倔強", "戀愛ING"]}, "geometry": {"type": "Point", "coordinates": [114.1826872, 22.30157353]}}, {"type": "Feature", "properties": {"id": 131, "series": "just_rock_it", "date": "2016.05.24", "event": "Just Rock It!", "city": "香港紅磡體育館", "loc": "香港D4", "songs": ["Do You Ever Shine？(國)", "三個傻瓜", "夜訪吸血鬼", "為愛而生", "超人", "雌雄同體", "候鳥", "叫我第一名", "軋車", "離開地球表面", "諾亞方舟", "知足", "瘋狂世界", "盛夏光年", "如煙", "小護士", "乾杯", "將軍令", "入陣曲", "我不願讓你一個人", "勇敢(國)", "憨人", "一顆蘋果", "派對動物", "傷心的人別聽慢歌", "後青春期的詩", "突然好想你", "真實故事改編", "溫柔", "OAOA"]}, "geometry": {"type": "Point", "coordinates": [114.1826872, 22.30157353]}}, {"type": "Feature", "properties": {"id": 132, "series": "just_rock_it", "date": "2016.05.23", "event": "Just Rock It!", "city": "香港紅磡體育館", "loc": "香港D3", "songs": ["Do You Ever Shine？(國)", "三個傻瓜", "夜訪吸血鬼", "為愛而生", "孫悟空", "生命有一種絕對", "候鳥", "叫我第一名", "軋車", "離開地球表面", "諾亞方舟", "知足", "瘋狂世界", "你不是真正的快樂", "如煙", "製造浪漫", "乾杯", "將軍令", "入陣曲", "我不願讓你一個人", "勇敢(國)", "憨人", "一顆蘋果", "派對動物", "傷心的人別聽慢歌", "後青春期的詩", "突然好想你", "九號球", "倔強", "OAOA", "終結孤單"]}, "geometry": {"type": "Point", "coordinates": [114.1826872, 22.30157353]}}, {"type": "Feature", "properties": {"id": 133, "series": "just_rock_it", "date": "2016.05.21", "event": "Just Rock It!", "city": "香港紅磡體育館", "loc": "香港D2", "songs": ["Do You Ever Shine？(國)", "三個傻瓜", "夜訪吸血鬼", "為愛而生", "超人", "雌雄同體", "候鳥", "叫我第一名", "軋車", "離開地球表面", "諾亞方舟", "知足", "瘋狂世界", "盛夏光年", "如煙", "小護士", "乾杯", "將軍令", "入陣曲", "我不願讓你一個人", "勇敢(國)", "憨人", "一顆蘋果", "派對動物", "傷心的人別聽慢歌", "後青春期的詩", "突然好想你", "純真", "倔強", "OAOA", "戀愛ING"]}, "geometry": {"type": "Point", "coordinates": [114.1826872, 22.30157353]}}, {"type": "Feature", "properties": {"id": 134, "series": "just_rock_it", "date": "2016.05.20", "event": "Just Rock It!", "city": "香港紅磡體育館", "loc": "香港D1", "songs": ["Do You Ever Shine？(國)", "三個傻瓜", "夜訪吸血鬼", "為愛而生", "孫悟空", "生命有一種絕對", "候鳥", "叫我第一名", "軋車", "離開地球表面", "諾亞方舟", "知足", "瘋狂世界", "你不是真正的快樂", "如煙", "小護士", "乾杯", "將軍令", "入陣曲", "勇敢(國)", "我不願讓你一個人", "憨人", "一顆蘋果", "派對動物", "傷心的人別聽慢歌", "後青春期的詩", "突然好想你", "最重要的小事", "倔強", "OAOA", "終結孤單"]}, "geometry": {"type": "Point", "coordinates": [114.1826872, 22.30157353]}}, {"type": "Feature", "properties": {"id": 135, "series": "just_rock_it", "date": "2015.08.29", "event": "Just Rock It!", "city": "東京日本武道館", "loc": "東京D2", "songs": ["Do You Ever Shine？", "你不是真正的快樂", "最重要的小事", "孫悟空", "武裝", "OK啦", "叫我第一名", "軋車", "離開地球表面", "追憶のナインボール", "抱きしめて", "愛情萬歲", "笑忘歌", "Belief 給等待春天的你", "溫柔", "OAOA(日)", "我不願讓你一個人", "三個傻瓜", "Dancin' Dancin'", "人生海海", "Your Legend 燃燒的生命", "入陣曲", "知足", "倔強", "憨人"]}, "geometry": {"type": "Point", "coordinates": [139.7495615, 35.69313455]}}, {"type": "Feature", "properties": {"id": 136, "series": "just_rock_it", "date": "2015.08.28", "event": "Just Rock It!", "city": "東京日本武道館", "loc": "東京D1", "songs": ["Do You Ever Shine？", "你不是真正的快樂", "天使", "孫悟空", "賭神", "OK啦", "終結孤單", "軋車", "離開地球表面", "追憶のナインボール", "抱きしめて", "雌雄同體", "乾杯", "戀愛ING", "溫柔", "OAOA(日)", "突然好想你", "向前走", "Belief 給等待春天的你", "Dancin' Dancin'", "Your Legend 燃燒的生命", "入陣曲", "知足", "憨人", "倔強"]}, "geometry": {"type": "Point", "coordinates": [139.7495007, 35.69311623]}}, {"type": "Feature", "properties": {"id": 137, "series": "just_rock_it", "date": "2015.03.28", "event": "Just Rock It!", "city": "大西洋城濱海大道會議中心", "loc": "大西洋城", "songs": ["星空", "你不是真正的快樂", "最重要的小事", "孫悟空", "賭神", "相信", "終結孤單", "志明與春嬌", "三個傻瓜", "軋車", "傷心的人別聽慢歌", "九號球", "笑忘歌", "我不願讓你一個人", "愛情萬歲", "戀愛ING", "乾杯", "溫柔", "你是唯一", "突然好想你", "OAOA", "離開地球表面", "人生海海", "將軍令", "入陣曲", "知足", "倔強"]}, "geometry": {"type": "Point", "coordinates": [-74.43796185, 39.35509578]}}, {"type": "Feature", "properties": {"id": 138, "series": "just_rock_it", "date": "2014.05.30", "event": "Just Rock It!", "city": "香港紅磡體育館", "loc": "香港D7", "songs": ["第二人生", "你不是真正的快樂", "最重要的小事", "孫悟空", "賭神", "相信", "終結孤單", "志明與春嬌", "瘋狂世界", "三個傻瓜", "軋車", "笑忘歌", "突然好想你", "九號球", "借問眾神明", "愛情陷阱", "生存以上 生活以下", "永遠的永遠", "浪子心聲", "憨人", "你是唯一", "步步", "約翰藍儂", "離開地球表面", "傷心的人別聽慢歌", "人生海海", "晚安地球人", "入陣曲", "OAOA feat. Flumpool", "証明 feat. Flumpool", "倔強", "Do You Ever Shine？", "乾杯", "我心中尚未崩壞的地方", "溫柔"]}, "geometry": {"type": "Point", "coordinates": [114.1826872, 22.30157353]}}, {"type": "Feature", "properties": {"id": 139, "series": "just_rock_it", "date": "2014.05.29", "event": "Just Rock It!", "city": "香港紅磡體育館", "loc": "香港D6", "songs": ["第二人生", "你不是真正的快樂", "最重要的小事", "孫悟空", "賭神", "相信", "終結孤單", "志明與春嬌", "瘋狂世界", "三個傻瓜", "軋車", "笑忘歌", "突然好想你", "九號球", "借問眾神明", "愛情陷阱", "生存以上 生活以下", "永遠的永遠", "浪子心聲", "憨人", "你是唯一", "步步", "約翰藍儂", "離開地球表面", "傷心的人別聽慢歌", "人生海海", "晚安地球人", "入陣曲", "OAOA feat. Flumpool", "証明 feat. Flumpool", "倔強", "Do You Ever Shine？", "洋蔥", "乾杯"]}, "geometry": {"type": "Point", "coordinates": [114.1826872, 22.30157353]}}, {"type": "Feature", "properties": {"id": 140, "series": "just_rock_it", "date": "2014.05.27", "event": "Just Rock It!", "city": "香港紅磡體育館", "loc": "香港D5", "songs": ["第二人生", "你不是真正的快樂", "最重要的小事", "孫悟空", "賭神", "相信", "終結孤單", "志明與春嬌", "瘋狂世界", "三個傻瓜", "軋車", "笑忘歌", "擁抱", "九號球", "借問眾神明", "愛情陷阱", "生存以上 生活以下", "永遠的永遠", "浪子心聲", "憨人", "你是唯一", "步步", "OAOA", "離開地球表面", "傷心的人別聽慢歌", "人生海海", "晚安地球人", "入陣曲", "I Love You無望", "良心(亂彈阿翔)", "承諾(亂彈阿翔)", "倔強", "突然好想你", "乾杯"]}, "geometry": {"type": "Point", "coordinates": [114.1826872, 22.30157353]}}, {"type": "Feature", "properties": {"id": 141, "series": "just_rock_it", "date": "2014.05.26", "event": "Just Rock It!", "city": "香港紅磡體育館", "loc": "香港D4", "songs": ["第二人生", "你不是真正的快樂", "最重要的小事", "孫悟空", "賭神", "相信", "終結孤單", "志明與春嬌", "瘋狂世界", "三個傻瓜", "軋車", "笑忘歌", "突然好想你", "九號球", "借問眾神明", "愛情陷阱", "生存以上 生活以下", "永遠的永遠", "浪子心聲", "憨人", "你是唯一", "步步", "OAOA", "離開地球表面", "傷心的人別聽慢歌", "人生海海", "晚安地球人", "入陣曲", "I Love You無望 feat. 亂彈阿翔", "承諾(亂彈阿翔)", "倔強", "愛情的模樣", "乾杯", "溫柔"]}, "geometry": {"type": "Point", "coordinates": [114.1826872, 22.30157353]}}, {"type": "Feature", "properties": {"id": 142, "series": "just_rock_it", "date": "2014.05.24", "event": "Just Rock It!", "city": "香港紅磡體育館", "loc": "香港D3", "songs": ["第二人生", "你不是真正的快樂", "最重要的小事", "孫悟空", "賭神", "相信", "終結孤單", "志明與春嬌", "瘋狂世界", "三個傻瓜", "軋車", "笑忘歌", "我不願讓你一個人", "九號球", "借問眾神明", "愛情陷阱", "生存以上 生活以下", "永遠的永遠", "浪子心聲", "憨人", "你是唯一", "步步", "OAOA", "離開地球表面", "傷心的人別聽慢歌", "人生海海", "晚安地球人", "入陣曲", "諾亞方舟", "戀愛ING", "倔強", "知足", "乾杯"]}, "geometry": {"type": "Point", "coordinates": [114.1826872, 22.30157353]}}, {"type": "Feature", "properties": {"id": 143, "series": "just_rock_it", "date": "2014.05.23", "event": "Just Rock It!", "city": "香港紅磡體育館", "loc": "香港D2", "songs": ["第二人生", "你不是真正的快樂", "最重要的小事", "孫悟空", "賭神", "相信", "終結孤單", "志明與春嬌", "瘋狂世界", "三個傻瓜", "軋車", "笑忘歌", "我不願讓你一個人", "九號球", "借問眾神明", "愛情陷阱", "生存以上 生活以下", "永遠的永遠", "浪子心聲", "憨人", "你是唯一", "步步", "OAOA", "離開地球表面", "傷心的人別聽慢歌", "人生海海", "晚安地球人", "入陣曲", "諾亞方舟", "製造浪漫", "倔強", "突然好想你", "乾杯"]}, "geometry": {"type": "Point", "coordinates": [114.1826872, 22.30157353]}}, {"type": "Feature", "properties": {"id": 144, "series": "just_rock_it", "date": "2014.05.22", "event": "Just Rock It!", "city": "香港紅磡體育館", "loc": "香港D1", "songs": ["第二人生", "你不是真正的快樂", "最重要的小事", "孫悟空", "賭神", "相信", "終結孤單", "志明與春嬌", "瘋狂世界", "三個傻瓜", "軋車", "T 121 3121", "笑忘歌", "九號球", "借問眾神明", "愛情陷阱", "生存以上 生活以下", "永遠的永遠", "浪子心聲", "憨人", "你是唯一", "步步", "我不願讓你一個人", "OAOA", "離開地球表面", "傷心的人別聽慢歌", "人生海海", "晚安地球人", "入陣曲", "諾亞方舟", "倔強(士杰)", "突然好想你", "洋蔥", "乾杯"]}, "geometry": {"type": "Point", "coordinates": [114.1826872, 22.30157353]}}, {"type": "Feature", "properties": {"id": 145, "series": "just_rock_it", "date": "2014.01.01", "event": "Just Rock It!", "city": "高雄國家體育場", "loc": "高雄", "songs": ["第二人生", "你不是真正的快樂", "最重要的小事", "孫悟空", "賭神", "相信", "終結孤單", "志明與春嬌", "瘋狂世界", "三個傻瓜", "軋車", "無所謂 feat. 5566", "我不願讓你一個人 feat. 5566", "我難過 feat. 5566", "T 121 3121", "九號球", "借問眾神明", "寶島曼波", "出頭天", "永遠的永遠", "故鄉", "向前走", "心中無別人", "你是唯一", "步步", "傷心的人別聽慢歌", "約翰藍儂", "OAOA", "離開地球表面", "人生海海", "晚安地球人", "入陣曲", "諾亞方舟", "墓仔埔也敢去", "我不願讓你一個人", "乾杯", "突然好想你", "憨人", "聽不到"]}, "geometry": {"type": "Point", "coordinates": [120.2953129, 22.70337862]}}, {"type": "Feature", "properties": {"id": 146, "series": "just_rock_it", "date": "2013.12.31", "event": "Just Rock It!", "city": "高雄國家體育場", "loc": "高雄", "songs": ["第二人生", "你不是真正的快樂", "最重要的小事", "孫悟空", "賭神", "相信", "終結孤單", "志明與春嬌", "瘋狂世界", "三個傻瓜", "軋車", "T 121 3121", "九號球", "借問眾神明", "寶島曼波", "出頭天", "永遠的永遠", "故鄉", "向前走", "心中無別人", "你是唯一", "步步", "傷心的人別聽慢歌", "約翰藍儂", "我不願讓你一個人", "OAOA", "離開地球表面", "人生海海", "晚安地球人", "入陣曲", "諾亞方舟", "乾杯", "突然好想你", "憨人"]}, "geometry": {"type": "Point", "coordinates": [120.2953129, 22.70337862]}}, {"type": "Feature", "properties": {"id": 147, "series": "just_rock_it", "date": "2013.02.16", "event": "Just Rock It!", "city": "東京 Zepp Tokyo", "loc": "東京", "songs": ["瘋狂世界", "倔強", "天使", "突然好想你", "恆星的恆心", "孫悟空", "志明與春嬌", "軋車", "OK啦", "DNA", "離開地球表面", "OAOA", "星空", "諾亞方舟", "乾杯", "人生海海", "戀愛ING", "知足"]}, "geometry": {"type": "Point", "coordinates": [139.7824638, 35.62597235]}}, {"type": "Feature", "properties": {"id": 148, "series": "just_rock_it", "date": "2012.11.22", "event": "Just Rock It!", "city": "大西洋城 Etess Arena", "loc": "大西洋城(午)", "songs": ["瘋狂世界", "終結孤單", "人生海海", "恆星的恆心", "倔強", "天使", "突然好想你", "OAOA", "DNA", "孫悟空", "擁抱", "聽不到", "我不願讓你一個人", "乾杯", "星空", "OK啦", "軋車", "離開地球表面", "溫柔", "諾亞方舟", "戀愛ING", "知足"]}, "geometry": {"type": "Point", "coordinates": [-74.42136501, 39.35997552]}}, {"type": "Feature", "properties": {"id": 149, "series": "just_rock_it", "date": "2012.11.22", "event": "Just Rock It!", "city": "大西洋城 Etess Arena", "loc": "大西洋城(早)", "songs": ["瘋狂世界", "終結孤單", "人生海海", "恆星的恆心", "倔強", "天使", "突然好想你", "OAOA", "DNA", "孫悟空", "擁抱", "志明與春嬌", "我不願讓你一個人", "乾杯", "星空", "OK啦", "軋車", "離開地球表面", "溫柔", "諾亞方舟", "戀愛ING", "知足"]}, "geometry": {"type": "Point", "coordinates": [-74.42128535, 39.35996086]}}, {"type": "Feature", "properties": {"id": 150, "series": "just_rock_it", "date": "2012.08.07", "event": "Just Rock It!", "city": "伯斯 Challenge Stadium", "loc": "伯斯", "songs": ["瘋狂世界", "終結孤單", "人生海海", "恆星的恆心", "倔強", "天使", "突然好想你", "OAOA", "孫悟空", "擁抱", "志明與春嬌", "我不願讓你一個人", "T 121 3121", "乾杯", "三個傻瓜", "OK啦", "軋車", "離開地球表面", "溫柔", "戀愛ING", "星空", "知足"]}, "geometry": {"type": "Point", "coordinates": [115.7818292, -31.9524191]}}, {"type": "Feature", "properties": {"id": 151, "series": "just_rock_it", "date": "2012.08.05", "event": "Just Rock It!", "city": "墨爾本 Convention Centre", "loc": "墨爾本", "songs": ["瘋狂世界", "終結孤單", "人生海海", "恆星的恆心", "倔強", "天使", "突然好想你", "OAOA", "孫悟空", "擁抱", "志明與春嬌", "DNA", "我不願讓你一個人", "T 121 3121", "乾杯", "諾亞方舟", "星空", "三個傻瓜", "OK啦", "軋車", "離開地球表面", "溫柔", "戀愛ING", "你不是真正的快樂", "知足", "憨人", "鹹魚"]}, "geometry": {"type": "Point", "coordinates": [144.9519802, -37.82469706]}}, {"type": "Feature", "properties": {"id": 152, "series": "just_rock_it", "date": "2012.08.04", "event": "Just Rock It!", "city": "雪梨 Sydney Entertainment Centre", "loc": "雪梨", "songs": ["瘋狂世界", "終結孤單", "人生海海", "恆星的恆心", "倔強", "天使", "突然好想你", "OAOA", "DNA", "孫悟空", "擁抱", "志明與春嬌", "愛情萬歲", "我不願讓你一個人", "T 121 3121", "乾杯", "諾亞方舟", "星空", "三個傻瓜", "OK啦", "軋車", "離開地球表面", "溫柔", "知足", "戀愛ING", "憨人", "鹹魚"]}, "geometry": {"type": "Point", "coordinates": [151.2029045, -33.87779015]}}, {"type": "Feature", "properties": {"id": 153, "series": "just_rock_it", "date": "2012.03.27", "event": "Just Rock It!", "city": "倫敦 Wembley Arena", "loc": "倫敦", "songs": ["瘋狂世界", "終結孤單", "人生海海", "恆星的恆心", "倔強", "天使", "突然好想你", "星空", "你不是真正的快樂", "DNA", "孫悟空", "I Love You無望", "擁抱", "志明與春嬌", "愛情萬歲", "香水", "如煙", "T 121 3121", "乾杯", "最重要的小事", "第一天", "OK啦", "軋車", "離開地球表面", "溫柔", "OAOA", "戀愛ING", "知足", "憨人"]}, "geometry": {"type": "Point", "coordinates": [-0.282459436, 51.55812676]}}, {"type": "Feature", "properties": {"id": 154, "series": "just_rock_it", "date": "2011.09.03", "event": "Just Rock It!", "city": "臺北小巨蛋", "loc": "台北", "songs": ["瘋狂世界", "心中無別人", "人生海海", "時光機", "倔強", "天使", "突然好想你", "OAOA（丟掉名字性別）", "孫悟空", "雌雄同體", "軋車", "離開地球表面", "春天的吶喊", "I Love You無望", "為什麼（今日的愛情）", "志明與春嬌", "愛情萬歲", "DNA", "香水", "明白", "如煙", "機場", "酒後的心聲", "恰似你的溫柔", "笑忘歌", "你是唯一", "超人", "夢交響", "愛是對的", "第一天", "叫我第一名", "OK啦", "噢買尬", "戀愛ING", "知足", "你不是真正的快樂", "垃圾車", "分享", "溫柔", "唸你", "憨人"]}, "geometry": {"type": "Point", "coordinates": [121.549655, 25.05133786]}}, {"type": "Feature", "properties": {"id": 155, "series": "just_rock_it", "date": "2011.05.23", "event": "Just Rock It!", "city": "香港紅磡體育館", "loc": "香港D4", "songs": ["瘋狂世界", "終結孤單", "人生海海", "恆星的恆心", "倔強", "天使", "突然好想你", "孫悟空", "雌雄同體", "軋車", "離開地球表面", "春天的吶喊", "I Love You無望", "為什麼（今日的愛情）", "愛情陷阱", "歡樂年華", "志明與春嬌", "愛情萬歲", "DNA", "香水", "笑忘歌", "你是唯一", "超人", "夢交響", "愛是對的", "第一天", "叫我第一名", "OK啦", "知足", "戀愛ING", "OAOA", "你不是真正的快樂", "噢買尬", "聽不到", "天天想你", "最重要的小事", "溫柔", "憨人"]}, "geometry": {"type": "Point", "coordinates": [114.1826872, 22.30157353]}}, {"type": "Feature", "properties": {"id": 156, "series": "just_rock_it", "date": "2011.05.22", "event": "Just Rock It!", "city": "香港紅磡體育館", "loc": "香港D3", "songs": ["瘋狂世界", "終結孤單", "人生海海", "恆星的恆心", "倔強", "天使", "突然好想你", "孫悟空", "雌雄同體", "軋車", "離開地球表面", "春天的吶喊", "I Love You無望", "志明與春嬌", "愛情萬歲", "DNA", "香水", "笑忘歌", "你是唯一", "超人", "夢交響", "愛是對的", "第一天", "叫我第一名", "OK啦", "知足", "戀愛ING", "OAOA", "你不是真正的快樂", "噢買尬", "生命有一種絕對", "麥來亂", "溫柔", "憨人"]}, "geometry": {"type": "Point", "coordinates": [114.1826872, 22.30157353]}}, {"type": "Feature", "properties": {"id": 157, "series": "just_rock_it", "date": "2011.05.21", "event": "Just Rock It!", "city": "香港紅磡體育館", "loc": "香港D2", "songs": ["瘋狂世界", "終結孤單", "人生海海", "恆星的恆心", "倔強", "天使", "突然好想你", "孫悟空", "雌雄同體", "軋車", "離開地球表面", "春天的吶喊", "I Love You無望", "為什麼（今日的愛情）", "志明與春嬌", "愛情萬歲", "DNA", "香水", "笑忘歌", "透露", "你是唯一", "夜訪吸血鬼", "夢交響", "愛是對的", "第一天", "叫我第一名", "OK啦", "知足", "戀愛ING", "OAOA", "你不是真正的快樂", "噢買尬", "彩虹", "超人", "溫柔"]}, "geometry": {"type": "Point", "coordinates": [114.1826872, 22.30157353]}}, {"type": "Feature", "properties": {"id": 158, "series": "just_rock_it", "date": "2011.05.20", "event": "Just Rock It!", "city": "香港紅磡體育館", "loc": "香港D1", "songs": ["瘋狂世界", "終結孤單", "人生海海", "恆星的恆心", "倔強", "天使", "突然好想你", "孫悟空", "雌雄同體", "軋車", "離開地球表面", "春天的吶喊", "I Love You無望", "為什麼（今日的愛情）", "志明與春嬌", "愛情萬歲", "DNA", "香水", "笑忘歌", "透露", "你是唯一", "超人", "夢交響", "愛是對的", "第一天", "叫我第一名", "OK啦", "知足", "戀愛ING", "OAOA", "你不是真正的快樂", "噢買尬", "聽不到", "Imagine", "溫柔"]}, "geometry": {"type": "Point", "coordinates": [114.1826872, 22.30157353]}}, {"type": "Feature", "properties": {"id": 159, "series": "just_rock_it_blue", "date": "2020.01.04", "event": "Just Rock It 藍│BLUE", "city": "桃園國際棒球場", "loc": "桃園D11", "songs": ["瘋狂世界", "擁抱", "愛情的模樣", "透露", "派對動物", "離開地球表面", "純真", "溫柔", "愛情萬歲", "借問眾神明", "心中無別人", "終結孤單", "寵上天", "忘詞", "軋車", "志明與春嬌", "I Love You無望", "反而", "人生海海", "候鳥", "羅密歐與茱麗葉", "傷心的人別聽慢歌", "我不願讓你一個人", "嘿我要走了", "相信", "玫瑰少年", "盛夏光年", "突然好想你", "倔強", "永遠的永遠", "憨人", "生命有一種絕對", "一顆蘋果", "瘋狂世界"]}, "geometry": {"type": "Point", "coordinates": [121.2004208, 25.00099217]}}, {"type": "Feature", "properties": {"id": 160, "series": "just_rock_it_blue", "date": "2020.01.03", "event": "Just Rock It 藍│BLUE", "city": "桃園國際棒球場", "loc": "桃園D10", "songs": ["瘋狂世界", "擁抱", "愛情的模樣", "透露", "派對動物", "離開地球表面", "純真", "溫柔", "愛情萬歲", "借問眾神明", "心中無別人", "終結孤單", "垃圾車", "酒後的心聲", "生存以上生活以下", "米老鼠", "OAOA", "軋車", "志明與春嬌", "I Love You無望", "反而", "人生海海", "候鳥", "羅密歐與茱麗葉", "傷心的人別聽慢歌", "最重要的小事 feat. 蘇慧倫", "被動 feat. 蘇慧倫", "我不願讓你一個人", "嘿我要走了", "相信", "玫瑰少年", "突然好想你", "倔強", "永遠的永遠", "憨人", "戀愛ING", "乾杯"]}, "geometry": {"type": "Point", "coordinates": [121.2004208, 25.00099217]}}, {"type": "Feature", "properties": {"id": 161, "series": "just_rock_it_blue", "date": "2020.01.01", "event": "Just Rock It 藍│BLUE", "city": "桃園國際棒球場", "loc": "桃園D9", "songs": ["瘋狂世界", "擁抱", "愛情的模樣", "透露", "派對動物", "離開地球表面", "純真", "溫柔", "愛情萬歲", "借問眾神明", "心中無別人", "終結孤單", "笑忘歌", "OK啦", "軋車", "志明與春嬌", "I Love You無望", "反而", "人生海海", "候鳥", "羅密歐與茱麗葉", "傷心的人別聽慢歌", "超人", "最重要的小事", "我不願讓你一個人", "嘿我要走了", "相信", "玫瑰少年", "盛夏光年", "突然好想你", "倔強", "永遠的永遠", "憨人", "OAOA", "戀愛ING"]}, "geometry": {"type": "Point", "coordinates": [121.2004208, 25.00099217]}}, {"type": "Feature", "properties": {"id": 162, "series": "just_rock_it_blue", "date": "2019.12.31", "event": "Just Rock It 藍│BLUE", "city": "桃園國際棒球場", "loc": "桃園D8", "songs": ["瘋狂世界", "擁抱", "透露", "派對動物", "離開地球表面", "純真", "溫柔", "愛情萬歲", "借問眾神明", "心中無別人", "終結孤單", "笑忘歌", "小護士", "軋車", "志明與春嬌", "I Love You無望", "反而", "人生海海", "候鳥", "羅密歐與茱麗葉", "孫悟空", "我不願讓你一個人", "嘿我要走了", "相信", "愛情的模樣", "盛夏光年", "傷心的人別聽慢歌", "憨人", "永遠的永遠", "倔強", "玫瑰少年", "突然好想你", "OAOA", "乾杯", "聽不到"]}, "geometry": {"type": "Point", "coordinates": [121.2004208, 25.00099217]}}, {"type": "Feature", "properties": {"id": 163, "series": "just_rock_it_blue", "date": "2019.12.29", "event": "Just Rock It 藍│BLUE", "city": "桃園國際棒球場", "loc": "桃園D7", "songs": ["瘋狂世界", "擁抱", "愛情的模樣", "透露", "派對動物", "離開地球表面", "純真", "溫柔", "愛情萬歲", "借問眾神明", "心中無別人", "終結孤單", "垃圾車", "牙關", "憨人", "OAOA", "軋車", "志明與春嬌", "I Love You無望", "反而", "人生海海", "候鳥", "羅密歐與茱麗葉", "傷心的人別聽慢歌", "你不是真正的快樂", "一顆蘋果", "我不願讓你一個人", "嘿我要走了", "相信", "玫瑰少年", "盛夏光年", "突然好想你", "倔強", "永遠的永遠", "憨人", "彩虹", "戀愛ING"]}, "geometry": {"type": "Point", "coordinates": [121.2004208, 25.00099217]}}, {"type": "Feature", "properties": {"id": 164, "series": "just_rock_it_blue", "date": "2019.12.28", "event": "Just Rock It 藍│BLUE", "city": "桃園國際棒球場", "loc": "桃園D6", "songs": ["瘋狂世界", "擁抱", "愛情的模樣", "透露", "派對動物", "離開地球表面", "純真", "溫柔", "愛情萬歲", "借問眾神明", "心中無別人", "終結孤單", "雨眠", "垃圾車", "軋車", "志明與春嬌", "I Love You無望", "反而", "人生海海", "候鳥", "羅密歐與茱麗葉", "傷心的人別聽慢歌", "我不願讓你一個人 feat. 陶喆", "找自己 feat. 陶喆", "好不好", "嘿我要走了", "相信", "玫瑰少年", "突然好想你", "倔強", "永遠的永遠", "憨人", "製造浪漫", "戀愛ING"]}, "geometry": {"type": "Point", "coordinates": [121.2004208, 25.00099217]}}, {"type": "Feature", "properties": {"id": 165, "series": "just_rock_it_blue", "date": "2019.12.27", "event": "Just Rock It 藍│BLUE", "city": "桃園國際棒球場", "loc": "桃園D5", "songs": ["瘋狂世界", "擁抱", "愛情的模樣", "透露", "派對動物", "離開地球表面", "純真", "溫柔", "愛情萬歲", "借問眾神明", "心中無別人", "終結孤單", "笑忘歌", "戀愛ING", "軋車", "志明與春嬌", "I Love You無望", "反而", "人生海海", "候鳥", "羅密歐與茱麗葉", "傷心的人別聽慢歌", "最重要的小事", "盛夏光年", "墓仔埔也敢去", "一半人生", "我不願讓你一個人", "嘿我要走了", "相信", "玫瑰少年", "盛夏光年", "突然好想你", "倔強", "永遠的永遠", "憨人", "聽不到"]}, "geometry": {"type": "Point", "coordinates": [121.2004208, 25.00099217]}}, {"type": "Feature", "properties": {"id": 166, "series": "just_rock_it_blue", "date": "2019.12.25", "event": "Just Rock It 藍│BLUE", "city": "桃園國際棒球場", "loc": "桃園D4", "songs": ["瘋狂世界", "擁抱", "愛情的模樣", "透露", "派對動物", "離開地球表面", "純真", "溫柔", "愛情萬歲", "借問眾神明", "心中無別人", "終結孤單", "垃圾車", "聖誕夜驚魂", "軋車", "志明與春嬌", "I Love You無望", "反而", "人生海海", "候鳥", "羅密歐與茱麗葉", "傷心的人別聽慢歌", "盛夏光年 feat. 周華健", "心的方向 feat. 周華健", "讓我歡喜讓我憂 feat. 周華健", "花心 feat. 周華健", "朋友 feat. 周華健", "好不好", "我不願讓你一個人", "嘿我要走了", "相信", "玫瑰少年", "突然好想你", "倔強", "永遠的永遠", "憨人"]}, "geometry": {"type": "Point", "coordinates": [121.2004208, 25.00099217]}}, {"type": "Feature", "properties": {"id": 167, "series": "just_rock_it_blue", "date": "2019.12.24", "event": "Just Rock It 藍│BLUE", "city": "桃園國際棒球場", "loc": "桃園D3", "songs": ["瘋狂世界", "擁抱", "愛情的模樣", "透露", "派對動物", "離開地球表面", "純真", "溫柔", "愛情萬歲", "借問眾神明", "心中無別人", "終結孤單", "軋車 feat. 蕭敬騰", "I Love You無望 feat. 蕭敬騰", "笑忘歌 feat. 蕭敬騰", "疼愛 feat. 蕭敬騰", "說好不哭 feat. 蕭敬騰", "志明與春嬌", "反而", "人生海海", "候鳥", "羅密歐與茱麗葉", "傷心的人別聽慢歌", "聖誕夜驚魂", "我不願讓你一個人", "HoSee", "嘿我要走了", "相信", "玫瑰少年", "突然好想你", "倔強", "永遠的永遠", "憨人"]}, "geometry": {"type": "Point", "coordinates": [121.2004208, 25.00099217]}}, {"type": "Feature", "properties": {"id": 168, "series": "just_rock_it_blue", "date": "2019.12.22", "event": "Just Rock It 藍│BLUE", "city": "桃園國際棒球場", "loc": "桃園D2", "songs": ["瘋狂世界", "擁抱", "愛情的模樣", "透露", "派對動物", "離開地球表面", "純真", "溫柔", "愛情萬歲", "借問眾神明", "心中無別人", "終結孤單", "OAOA", "笑忘歌", "軋車", "志明與春嬌", "I Love You無望", "反而", "人生海海", "候鳥", "羅密歐與茱麗葉", "傷心的人別聽慢歌", "盛夏光年 feat. 鄧紫棋", "句號(鄧紫棋)", "牙關", "聖誕夜驚魂", "一顆蘋果", "我不願讓你一個人", "嘿我要走了", "相信", "玫瑰少年", "突然好想你", "倔強", "永遠的永遠", "憨人"]}, "geometry": {"type": "Point", "coordinates": [121.2004208, 25.00099217]}}, {"type": "Feature", "properties": {"id": 169, "series": "just_rock_it_blue", "date": "2019.12.21", "event": "Just Rock It 藍│BLUE", "city": "桃園國際棒球場", "loc": "桃園D1", "songs": ["瘋狂世界", "擁抱", "愛情的模樣", "透露", "派對動物", "離開地球表面", "純真", "愛情萬歲", "借問眾神明", "心中無別人", "終結孤單", "OAOA", "軋車", "志明與春嬌", "I Love You無望", "反而", "人生海海", "候鳥", "羅密歐與茱麗葉", "傷心的人別聽慢歌", "溫柔 feat. 孫燕姿", "王子麵 feat. 孫燕姿", "第一天 feat. 孫燕姿", "笑忘歌", "最重要的小事", "我不願讓你一個人", "好不好", "嘿我要走了", "相信", "玫瑰少年", "盛夏光年", "憨人", "突然好想你", "倔強"]}, "geometry": {"type": "Point", "coordinates": [121.2004208, 25.00099217]}}, {"type": "Feature", "properties": {"id": 170, "series": "just_rock_it_blue", "date": "2019.11.03", "event": "Just Rock It 藍│BLUE", "city": "上海虹口足球場", "loc": "上海D6", "songs": ["瘋狂世界", "擁抱", "愛情的模樣", "透露", "派對動物", "離開地球表面", "純真", "溫柔", "愛情萬歲", "OAOA", "憨人", "笑忘歌", "憨人", "借問眾神明", "志明與春嬌", "軋車", "孫悟空", "知足", "反而", "人生海海", "候鳥", "羅密歐與茱麗葉", "傷心的人別聽慢歌", "玫瑰少年 feat. 蔡依林", "今天妳要嫁給我 feat. 蔡依林", "最重要的小事", "我不願讓你一個人", "嘿我要走了", "相信", "說好不哭", "頑固", "疼愛", "突然好想你", "一半人生", "憨人", "倔強"]}, "geometry": {"type": "Point", "coordinates": [121.4811138, 31.27138648]}}, {"type": "Feature", "properties": {"id": 171, "series": "just_rock_it_blue", "date": "2019.11.02", "event": "Just Rock It 藍│BLUE", "city": "上海虹口足球場", "loc": "上海D5", "songs": ["瘋狂世界", "擁抱", "愛情的模樣", "透露", "派對動物", "離開地球表面", "純真", "溫柔", "愛情萬歲", "OAOA", "笑忘歌", "借問眾神明", "志明與春嬌", "軋車", "孫悟空", "知足", "反而", "人生海海", "候鳥", "羅密歐與茱麗葉", "傷心的人別聽慢歌", "說好不哭", "牙關", "我不願讓你一個人", "嘿我要走了", "相信", "玫瑰少年", "頑固", "倉頡", "突然好想你", "一半人生", "倔強"]}, "geometry": {"type": "Point", "coordinates": [121.4811138, 31.27138648]}}, {"type": "Feature", "properties": {"id": 172, "series": "just_rock_it_blue", "date": "2019.11.01", "event": "Just Rock It 藍│BLUE", "city": "上海虹口足球場", "loc": "上海D4", "songs": ["瘋狂世界", "擁抱", "愛情的模樣", "透露", "派對動物", "離開地球表面", "純真", "溫柔", "愛情萬歲", "OAOA", "笑忘歌", "借問眾神明", "心中無別人", "軋車", "孫悟空", "知足", "反而", "人生海海", "候鳥", "羅密歐與茱麗葉", "傷心的人別聽慢歌", "在梅邊", "最重要的小事", "我不願讓你一個人", "嘿我要走了", "相信", "玫瑰少年", "頑固", "忘詞", "突然好想你", "一半人生", "倔強"]}, "geometry": {"type": "Point", "coordinates": [121.4811138, 31.27138648]}}, {"type": "Feature", "properties": {"id": 173, "series": "just_rock_it_blue", "date": "2019.10.27", "event": "Just Rock It 藍│BLUE", "city": "上海虹口足球場", "loc": "上海D3", "songs": ["瘋狂世界", "擁抱", "愛情的模樣", "透露", "派對動物", "離開地球表面", "純真", "溫柔", "愛情萬歲", "OAOA", "我不願讓你一個人", "突然好想你", "一顆蘋果", "借問眾神明", "心中無別人", "軋車", "孫悟空", "知足", "反而", "人生海海", "候鳥", "羅密歐與茱麗葉", "傷心的人別聽慢歌", "在梅邊 feat. 王力宏", "乾杯 feat. 王力宏", "什麼歌", "我不願讓你一個人", "嘿我要走了", "相信", "玫瑰少年", "頑固", "倉頡", "突然好想你", "一半人生", "倔強"]}, "geometry": {"type": "Point", "coordinates": [121.4811138, 31.27138648]}}, {"type": "Feature", "properties": {"id": 174, "series": "just_rock_it_blue", "date": "2019.10.26", "event": "Just Rock It 藍│BLUE", "city": "上海虹口足球場", "loc": "上海D2", "songs": ["瘋狂世界", "擁抱", "愛情的模樣", "透露", "溫柔", "派對動物", "離開地球表面", "純真", "溫柔", "終結孤單", "OAOA", "笑忘歌", "借問眾神明", "心中無別人", "軋車", "孫悟空", "倔強", "反而", "人生海海", "候鳥", "傷心的人別聽慢歌", "最重要的小事", "我不願讓你一個人", "嘿我要走了", "相信", "玫瑰少年", "頑固", "牙關", "疼愛", "突然好想你", "一半人生", "知足"]}, "geometry": {"type": "Point", "coordinates": [121.4811138, 31.27138648]}}, {"type": "Feature", "properties": {"id": 175, "series": "just_rock_it_blue", "date": "2019.10.25", "event": "Just Rock It 藍│BLUE", "city": "上海虹口足球場", "loc": "上海D1", "songs": ["瘋狂世界", "擁抱", "愛情的模樣", "透露", "派對動物", "離開地球表面", "純真", "溫柔", "終結孤單", "一顆蘋果", "OAOA", "借問眾神明", "心中無別人", "叫我第一名", "軋車", "孫悟空", "知足", "倔強 feat. 周杰倫", "說好不哭 feat. 周杰倫", "雙截棍 feat. 周杰倫", "志明與春嬌", "反而", "人生海海", "候鳥", "羅密歐與茱麗葉", "傷心的人別聽慢歌", "我不願讓你一個人", "嘿我要走了", "相信", "玫瑰少年", "頑固", "突然好想你", "一半人生", "聽不到", "倔強"]}, "geometry": {"type": "Point", "coordinates": [121.4811138, 31.27138648]}}, {"type": "Feature", "properties": {"id": 176, "series": "just_rock_it_blue", "date": "2019.08.25", "event": "Just Rock It 藍│BLUE", "city": "北京國家體育場(鳥巢)", "loc": "北京D3", "songs": ["瘋狂世界", "擁抱", "愛情的模樣", "透露", "派對動物", "離開地球表面", "純真", "溫柔", "終結孤單", "一顆蘋果", "OAOA", "借問眾神明", "心中無別人", "叫我第一名", "軋車", "孫悟空", "知足", "志明與春嬌", "反而", "人生海海", "候鳥", "羅密歐與茱麗葉", "傷心的人別聽慢歌", "你不是真正的快樂", "盛夏光年 feat. 鄧紫棋", "我不願讓你一個人 feat. 鄧紫棋", "嘿我要走了", "相信", "玫瑰少年", "頑固", "牙關", "突然好想你", "一半人生", "倔強", "聽不到", "憨人"]}, "geometry": {"type": "Point", "coordinates": [116.3972086, 39.99310747]}}, {"type": "Feature", "properties": {"id": 177, "series": "just_rock_it_blue", "date": "2019.08.24", "event": "Just Rock It 藍│BLUE", "city": "北京國家體育場(鳥巢)", "loc": "北京D2", "songs": ["瘋狂世界", "擁抱", "愛情的模樣", "透露", "派對動物", "離開地球表面", "純真", "溫柔", "終結孤單", "一顆蘋果", "OAOA", "借問眾神明", "心中無別人", "叫我第一名", "軋車", "孫悟空", "知足", "志明與春嬌", "反而", "人生海海", "候鳥", "羅密歐與茱麗葉", "傷心的人別聽慢歌", "疼愛", "我不願讓你一個人", "嘿我要走了", "相信", "玫瑰少年", "頑固", "牙關", "突然好想你", "一半人生", "倔強"]}, "geometry": {"type": "Point", "coordinates": [116.3972086, 39.99310747]}}, {"type": "Feature", "properties": {"id": 178, "series": "just_rock_it_blue", "date": "2019.08.23", "event": "Just Rock It 藍│BLUE", "city": "北京國家體育場(鳥巢)", "loc": "北京D1", "songs": ["瘋狂世界", "擁抱", "愛情的模樣", "透露", "派對動物", "離開地球表面", "純真", "溫柔", "終結孤單", "一顆蘋果", "OAOA", "借問眾神明", "心中無別人", "叫我第一名", "軋車", "孫悟空", "洋蔥 feat. 王俊凱", "知足 feat. 王俊凱", "志明與春嬌", "反而", "人生海海", "候鳥", "羅密歐與茱麗葉", "傷心的人別聽慢歌", "我不願讓你一個人", "嘿我要走了", "相信", "玫瑰少年", "頑固", "忘詞", "突然好想你", "一半人生", "倔強"]}, "geometry": {"type": "Point", "coordinates": [116.3972086, 39.99310747]}}, {"type": "Feature", "properties": {"id": 179, "series": "just_rock_it_blue", "date": "2019.05.12", "event": "Just Rock It 藍│BLUE", "city": "香港迪士尼樂園幻想道露天場地", "loc": "香港D6", "songs": ["瘋狂世界", "擁抱", "愛情的模樣", "透露", "離開地球表面", "純真", "溫柔", "愛情萬歲", "垃圾車", "借問眾神明", "心中無別人", "彩虹", "倔強", "天使", "叫我第一名", "軋車", "志明與春嬌", "反而", "人生海海", "候鳥", "羅密歐與茱麗葉", "傷心的人別聽慢歌", "洗衣機", "後來的我們", "嘿我要走了", "相信", "頑固", "忘詞", "突然好想你", "倔強", "憨人", "派對動物"]}, "geometry": {"type": "Point", "coordinates": [114.0418183, 22.31318495]}}, {"type": "Feature", "properties": {"id": 180, "series": "just_rock_it_blue", "date": "2019.05.11", "event": "Just Rock It 藍│BLUE", "city": "香港迪士尼樂園幻想道露天場地", "loc": "香港D5", "songs": ["瘋狂世界", "擁抱", "愛情的模樣", "透露", "離開地球表面", "純真", "溫柔", "愛情萬歲", "垃圾車", "借問眾神明", "OAOA", "心中無別人", "洋蔥", "小護士", "燕尾蝶", "叫我第一名", "軋車", "志明與春嬌", "反而", "人生海海", "候鳥", "羅密歐與茱麗葉", "傷心的人別聽慢歌", "後來的我們", "嘿我要走了", "相信", "頑固 feat. 梁家輝", "一半人生", "疼愛", "突然好想你", "倔強", "什麼歌"]}, "geometry": {"type": "Point", "coordinates": [114.0418183, 22.31318495]}}, {"type": "Feature", "properties": {"id": 181, "series": "just_rock_it_blue", "date": "2019.05.10", "event": "Just Rock It 藍│BLUE", "city": "香港迪士尼樂園幻想道露天場地", "loc": "香港D4", "songs": ["瘋狂世界", "擁抱", "愛情的模樣", "透露", "離開地球表面", "純真", "溫柔", "愛情萬歲", "心中無別人", "垃圾車", "借問眾神明", "愛情陷阱", "I Love You無望", "OAOA", "叫我第一名", "軋車", "志明與春嬌", "反而", "人生海海", "候鳥", "羅密歐與茱麗葉", "傷心的人別聽慢歌", "後來的我們", "嘿我要走了", "相信", "頑固", "忘詞", "突然好想你", "倔強", "知足"]}, "geometry": {"type": "Point", "coordinates": [114.0418183, 22.31318495]}}, {"type": "Feature", "properties": {"id": 182, "series": "just_rock_it_blue", "date": "2019.05.05", "event": "Just Rock It 藍│BLUE", "city": "香港迪士尼樂園幻想道露天場地", "loc": "香港D3", "songs": ["瘋狂世界", "擁抱", "愛情的模樣", "透露", "離開地球表面", "純真", "溫柔", "愛情萬歲", "私奔到月球 feat. 家家", "知足 feat. 家家", "OAOA", "垃圾車", "借問眾神明", "心中無別人", "叫我第一名", "軋車", "志明與春嬌", "反而", "人生海海", "候鳥", "羅密歐與茱麗葉", "傷心的人別聽慢歌", "米老鼠", "後來的我們", "嘿我要走了", "相信", "頑固", "一半人生", "忘詞", "突然好想你", "倔強", "聽不到"]}, "geometry": {"type": "Point", "coordinates": [114.0418183, 22.31318495]}}, {"type": "Feature", "properties": {"id": 183, "series": "just_rock_it_blue", "date": "2019.05.04", "event": "Just Rock It 藍│BLUE", "city": "香港迪士尼樂園幻想道露天場地", "loc": "香港D2", "songs": ["瘋狂世界", "擁抱", "愛情的模樣", "透露", "離開地球表面", "純真", "溫柔", "愛情萬歲", "垃圾車", "借問眾神明", "OAOA", "晚安地球人", "雨眠", "心中無別人", "叫我第一名", "軋車", "反而", "人生海海", "候鳥", "羅密歐與茱麗葉", "傷心的人別聽慢歌", "後來的我們", "嘿我要走了", "相信", "頑固", "一半人生", "疼愛", "突然好想你", "倔強", "憨人"]}, "geometry": {"type": "Point", "coordinates": [114.0418183, 22.31318495]}}, {"type": "Feature", "properties": {"id": 184, "series": "just_rock_it_blue", "date": "2019.05.03", "event": "Just Rock It 藍│BLUE", "city": "香港迪士尼樂園幻想道露天場地", "loc": "香港D1", "songs": ["瘋狂世界", "擁抱", "愛情的模樣", "透露", "離開地球表面", "純真", "溫柔", "愛情萬歲", "垃圾車", "借問眾神明", "心中無別人", "戀愛ING", "叫我第一名", "軋車", "志明與春嬌", "反而", "人生海海", "候鳥", "羅密歐與茱麗葉", "傷心的人別聽慢歌", "後來的我們", "嘿我要走了", "相信", "頑固", "一半人生", "忘詞", "突然好想你", "倔強", "瘋狂世界"]}, "geometry": {"type": "Point", "coordinates": [114.0418183, 22.31318495]}}, {"type": "Feature", "properties": {"id": 185, "series": "just_rock_it_blue", "date": "2019.04.07", "event": "Just Rock It 藍│BLUE", "city": "大阪城Hall", "loc": "大阪D2", "songs": ["瘋狂世界", "擁抱", "愛情的模樣", "透露", "離開地球表面", "純真", "溫柔", "愛情萬歲", "垃圾車", "借問眾神明", "心中無別人", "叫我第一名", "軋車", "志明與春嬌", "反而", "候鳥", "人生海海", "羅密歐與茱麗葉", "傷心的人別聽慢歌", "突然好想你", "後來的我們", "嘿我要走了", "相信", "頑固", "一半人生", "忘詞", "我不願讓你一個人", "倔強", "憨人", "乾杯"]}, "geometry": {"type": "Point", "coordinates": [135.5307347, 34.68980619]}}, {"type": "Feature", "properties": {"id": 186, "series": "just_rock_it_blue", "date": "2019.04.06", "event": "Just Rock It 藍│BLUE", "city": "大阪城Hall", "loc": "大阪D1", "songs": ["瘋狂世界", "擁抱", "愛情的模樣", "透露", "離開地球表面", "純真", "溫柔", "愛情萬歲", "垃圾車", "借問眾神明", "心中無別人", "叫我第一名", "軋車", "永遠的永遠", "反而", "候鳥", "人生海海", "羅密歐與茱麗葉", "傷心的人別聽慢歌", "我不願讓你一個人", "後來的我們", "嘿我要走了", "相信", "頑固", "一半人生", "忘詞", "突然好想你", "倔強"]}, "geometry": {"type": "Point", "coordinates": [135.5307347, 34.68980619]}}, {"type": "Feature", "properties": {"id": 187, "series": "life_tour", "date": "2019.01.06", "event": "人生無限公司", "city": "臺中洲際棒球場", "loc": "台中D10", "songs": ["派對動物", "傷心的人別聽慢歌", "OAOA", "入陣曲", "你不是真正的快樂", "製造浪漫", "笑忘歌", "戀愛ING", "乾杯", "兄弟", "OK啦", "人生有限公司", "成名在望", "我心中尚未崩壞的地方", "知足", "黑暗騎士", "頑固", "I Will Carry You", "孫悟空", "星空", "勇氣", "勇敢", "風若吹", "黑白講", "明白", "讓我照顧你", "疼愛", "什麼歌", "倔強", "人生海海", "如果我們不曾相遇", "我不願讓你一個人", "轉眼", "溫柔", "天天想你", "離開地球表面", "軋車", "憨人"]}, "geometry": {"type": "Point", "coordinates": [120.684474, 24.19949524]}}, {"type": "Feature", "properties": {"id": 188, "series": "life_tour", "date": "2019.01.05", "event": "人生無限公司", "city": "臺中洲際棒球場", "loc": "台中D9", "songs": ["派對動物", "傷心的人別聽慢歌", "OAOA", "入陣曲", "星空", "你不是真正的快樂", "製造浪漫", "好好", "好不好", "瘋狂世界", "終結孤單", "乾杯", "兄弟", "人生有限公司", "成名在望", "我心中尚未崩壞的地方", "知足", "黑暗騎士", "頑固", "I Will Carry You", "離開地球表面", "香水", "我們（時時刻刻）", "洗衣機", "任意門", "人生海海", "如果我們不曾相遇", "我不願讓你一個人", "轉眼", "突然好想你", "什麼歌", "溫柔", "如果我們不曾相遇", "倔強", "透露"]}, "geometry": {"type": "Point", "coordinates": [120.684474, 24.19949524]}}, {"type": "Feature", "properties": {"id": 189, "series": "life_tour", "date": "2019.01.04", "event": "人生無限公司", "city": "臺中洲際棒球場", "loc": "台中D8", "songs": ["派對動物", "OAOA", "入陣曲", "星空", "你不是真正的快樂", "一千個世紀", "愛你一萬年", "笑忘歌", "戀愛ING", "I Love You無望", "乾杯", "兄弟", "OK啦", "人生有限公司", "成名在望", "我心中尚未崩壞的地方", "知足", "少年他的奇幻漂流", "頑固", "I Will Carry You", "離開地球表面", "撐腰 feat. 羅志祥", "傷心的人別聽慢歌 feat. 羅志祥", "志明與春嬌 feat. 羅志祥", "恆星的恆心", "金色大街", "米老鼠", "任意門", "人生海海", "如果我們不曾相遇", "我不願讓你一個人", "轉眼", "突然好想你", "什麼歌", "憨人", "聽不到", "心中無別人"]}, "geometry": {"type": "Point", "coordinates": [120.684474, 24.19949524]}}, {"type": "Feature", "properties": {"id": 190, "series": "life_tour", "date": "2019.01.01", "event": "人生無限公司", "city": "臺中洲際棒球場", "loc": "台中D7", "songs": ["派對動物", "傷心的人別聽慢歌", "OAOA", "入陣曲", "超人", "你不是真正的快樂", "垃圾車", "I Love You無望", "戀愛ING", "乾杯", "兄弟", "OK啦", "人生有限公司", "成名在望", "我心中尚未崩壞的地方", "知足", "少年他的奇幻漂流", "頑固", "I Will Carry You", "離開地球表面", "挪威的森林 feat. 伍佰", "愛情萬歲 feat. 伍佰", "亂世浮生", "借問眾神明", "花（音樂來自四方）", "小太陽", "任意門", "人生海海", "如果我們不曾相遇", "我不願讓你一個人", "轉眼", "突然好想你", "倔強", "擁抱"]}, "geometry": {"type": "Point", "coordinates": [120.684474, 24.19949524]}}, {"type": "Feature", "properties": {"id": 191, "series": "life_tour", "date": "2018.12.31", "event": "人生無限公司", "city": "臺中洲際棒球場", "loc": "台中D6", "songs": ["派對動物", "傷心的人別聽慢歌", "最好的一天", "入陣曲", "超人", "你不是真正的快樂", "笑忘歌", "戀愛ING", "什麼歌", "兄弟", "OK啦", "人生有限公司", "成名在望", "我心中尚未崩壞的地方", "知足", "少年他的奇幻漂流", "頑固", "Do You Ever Shine？(國)", "離開地球表面", "約翰藍儂", "阿姆斯壯", "一顆蘋果", "人生海海", "如果我們不曾相遇", "我不願讓你一個人", "轉眼", "I Will Carry You", "倔強", "乾杯", "當每顆星星", "瘋狂世界", "寵上天", "任意門", "憨人", "志明與春嬌"]}, "geometry": {"type": "Point", "coordinates": [120.684474, 24.19949524]}}, {"type": "Feature", "properties": {"id": 192, "series": "life_tour", "date": "2018.12.30", "event": "人生無限公司", "city": "臺中洲際棒球場", "loc": "台中D5", "songs": ["派對動物", "傷心的人別聽慢歌", "OAOA", "入陣曲", "超人", "你不是真正的快樂", "HoSee", "笑忘歌", "最好的一天", "戀愛ING", "乾杯", "兄弟", "OK啦", "人生有限公司", "成名在望", "我心中尚未崩壞的地方", "知足", "少年他的奇幻漂流", "頑固", "孫悟空 feat. 張國璽", "你的電話 feat. 張國璽", "I Will Carry You", "離開地球表面", "忘詞", "明白", "而我知道", "任意門", "人生海海", "如果我們不曾相遇", "我不願讓你一個人", "轉眼", "突然好想你", "倔強", "溫柔"]}, "geometry": {"type": "Point", "coordinates": [120.684474, 24.19949524]}}, {"type": "Feature", "properties": {"id": 193, "series": "life_tour", "date": "2018.12.29", "event": "人生無限公司", "city": "臺中洲際棒球場", "loc": "台中D4", "songs": ["派對動物", "傷心的人別聽慢歌", "OAOA", "入陣曲", "超人", "你不是真正的快樂", "墓仔埔也敢去", "垃圾車", "戀愛ING", "乾杯", "兄弟", "OK啦", "人生有限公司", "成名在望", "我心中尚未崩壞的地方", "知足", "少年他的奇幻漂流", "頑固", "I Will Carry You", "離開地球表面", "Live & Life(黃子佼)", "如煙", "洗衣機", "最重要的小事", "任意門", "人生海海", "如果我們不曾相遇", "我不願讓你一個人", "轉眼", "突然好想你", "倔強", "心中無別人", "聽不到"]}, "geometry": {"type": "Point", "coordinates": [120.684474, 24.19949524]}}, {"type": "Feature", "properties": {"id": 194, "series": "life_tour", "date": "2018.12.24", "event": "人生無限公司", "city": "臺中洲際棒球場", "loc": "台中D3", "songs": ["派對動物", "傷心的人別聽慢歌", "OAOA", "入陣曲", "超人", "你不是真正的快樂", "墓仔埔也敢去", "笑忘歌", "終結孤單", "乾杯", "兄弟", "OK啦", "人生有限公司", "成名在望", "我心中尚未崩壞的地方", "知足", "少年他的奇幻漂流", "頑固", "I Will Carry You", "離開地球表面 feat. 吳宗憲", "真心換絕情 feat. 吳宗憲", "我會想你 feat. 吳宗憲", "是不是這樣的夜晚你才會這樣的想起我 feat. 吳宗憲", "雙截棍 feat. 吳宗憲", "笨小孩 feat. 吳宗憲", "步步", "透露", "聖誕夜驚魂", "任意門", "人生海海", "如果我們不曾相遇", "我不願讓你一個人", "轉眼", "突然好想你", "倔強", "聽不到"]}, "geometry": {"type": "Point", "coordinates": [120.684474, 24.19949524]}}, {"type": "Feature", "properties": {"id": 195, "series": "life_tour", "date": "2018.12.23", "event": "人生無限公司", "city": "臺中洲際棒球場", "loc": "台中D2", "songs": ["派對動物", "傷心的人別聽慢歌", "OAOA", "入陣曲", "超人", "你不是真正的快樂", "垃圾車", "一支小雨傘", "終結孤單", "乾杯", "兄弟", "OK啦", "人生有限公司", "成名在望", "我心中尚未崩壞的地方", "知足", "少年他的奇幻漂流", "頑固", "I Will Carry You", "離開地球表面", "洗衣機", "最重要的小事", "任意門", "人生海海", "如果我們不曾相遇", "我不願讓你一個人", "轉眼", "突然好想你", "疼愛", "彩虹", "倔強", "志明與春嬌", "戀愛ING"]}, "geometry": {"type": "Point", "coordinates": [120.684474, 24.19949524]}}, {"type": "Feature", "properties": {"id": 196, "series": "life_tour", "date": "2018.12.22", "event": "人生無限公司", "city": "臺中洲際棒球場", "loc": "台中D1", "songs": ["派對動物", "傷心的人別聽慢歌", "OAOA", "入陣曲", "超人", "你不是真正的快樂", "溫柔", "戀愛ING", "垃圾車", "乾杯", "兄弟", "OK啦", "人生有限公司", "成名在望", "我心中尚未崩壞的地方", "知足", "少年他的奇幻漂流", "頑固", "Do You Ever Shine？(國)", "離開地球表面", "雨眠", "小幸運(田馥甄)", "愛情的模樣 feat. 田馥甄", "笑忘歌", "一顆蘋果", "任意門", "人生海海", "如果我們不曾相遇", "我不願讓你一個人", "轉眼", "突然好想你", "彩虹", "憨人"]}, "geometry": {"type": "Point", "coordinates": [120.684474, 24.19949524]}}, {"type": "Feature", "properties": {"id": 197, "series": "life_tour", "date": "2018.10.06", "event": "人生無限公司", "city": "泰國 IMPACT", "loc": "曼谷", "songs": ["派對動物", "OAOA", "入陣曲", "星空", "你不是真正的快樂", "步步", "戀愛ING", "好好", "乾杯", "兄弟", "人生有限公司", "成名在望", "我心中尚未崩壞的地方", "知足", "我不願讓你一個人", "頑固", "I Will Carry You", "離開地球表面", "Don'ts Don'ts feat. Slot Machine", "垃圾車", "任意門", "人生海海", "轉眼", "突然好想你", "倔強", "好不好"]}, "geometry": {"type": "Point", "coordinates": [100.5482369, 13.91292052]}}, {"type": "Feature", "properties": {"id": 198, "series": "life_tour", "date": "2018.09.23", "event": "人生無限公司", "city": "奧克蘭 Trusts Arena", "loc": "奧克蘭", "songs": ["派對動物", "傷心的人別聽慢歌", "OAOA", "入陣曲", "星空", "你不是真正的快樂", "溫柔", "戀愛ING", "乾杯", "兄弟", "人生有限公司", "成名在望", "我心中尚未崩壞的地方", "知足", "我不願讓你一個人", "頑固", "I Will Carry You", "離開地球表面", "小太陽", "讓我照顧你", "九號球", "任意門", "人生海海", "轉眼", "突然好想你", "倔強", "讓我照顧你"]}, "geometry": {"type": "Point", "coordinates": [174.6357304, -36.86034047]}}, {"type": "Feature", "properties": {"id": 199, "series": "life_tour", "date": "2018.09.21", "event": "人生無限公司", "city": "雪梨 Qudos Bank Arena", "loc": "雪梨", "songs": ["派對動物", "傷心的人別聽慢歌", "OAOA", "入陣曲", "星空", "你不是真正的快樂", "香水", "溫柔", "乾杯", "兄弟", "人生有限公司", "成名在望", "我心中尚未崩壞的地方", "知足", "我不願讓你一個人", "頑固", "I Will Carry You", "離開地球表面", "最重要的小事", "有你的將來", "好好", "任意門", "人生海海", "轉眼", "突然好想你", "倔強"]}, "geometry": {"type": "Point", "coordinates": [151.0624219, -33.84413067]}}, {"type": "Feature", "properties": {"id": 200, "series": "life_tour", "date": "2018.09.18", "event": "人生無限公司", "city": "墨爾本 Hisense Arena", "loc": "墨爾本", "songs": ["派對動物", "傷心的人別聽慢歌", "OAOA", "入陣曲", "星空", "你不是真正的快樂", "笑忘歌", "戀愛ING", "乾杯", "兄弟", "人生有限公司", "成名在望", "我心中尚未崩壞的地方", "知足", "盛夏光年", "頑固", "I Will Carry You", "離開地球表面", "志明與春嬌", "如果我們不曾相遇", "任意門", "人生海海", "我不願讓你一個人", "轉眼", "突然好想你", "倔強"]}, "geometry": {"type": "Point", "coordinates": [144.9824395, -37.82273286]}}, {"type": "Feature", "properties": {"id": 201, "series": "life_tour", "date": "2018.09.08", "event": "人生無限公司", "city": "首爾 Olympic Hall", "loc": "首爾", "songs": ["派對動物", "傷心的人別聽慢歌", "OAOA", "入陣曲", "星空", "你不是真正的快樂", "笑忘歌", "戀愛ING", "乾杯", "兄弟", "人生有限公司", "成名在望", "我心中尚未崩壞的地方", "知足", "盛夏光年", "頑固", "I Will Carry You", "離開地球表面", "步步", "牙關", "任意門", "人生海海", "我不願讓你一個人", "轉眼", "突然好想你", "倔強"]}, "geometry": {"type": "Point", "coordinates": [127.1277117, 37.51488078]}}, {"type": "Feature", "properties": {"id": 202, "series": "life_tour", "date": "2018.08.26", "event": "人生無限公司", "city": "北京國家體育場(鳥巢)", "loc": "北京D3", "songs": ["派對動物", "離開地球表面", "OAOA", "入陣曲", "星空", "你不是真正的快樂", "戀愛ING", "笑忘歌", "乾杯", "兄弟", "人生有限公司", "成名在望", "我心中尚未崩壞的地方", "知足", "盛夏光年", "頑固", "I Will Carry You", "傷心的人別聽慢歌 feat. 黃渤", "生日快樂", "當每顆星星 feat. 黃渤", "相信", "一顆蘋果", "倔強", "人生海海", "終於結束的起點", "我不願讓你一個人", "轉眼", "突然好想你", "生命有一種絕對", "憨人", "如果我們不曾相遇"]}, "geometry": {"type": "Point", "coordinates": [116.3972086, 39.99310747]}}, {"type": "Feature", "properties": {"id": 203, "series": "life_tour", "date": "2018.08.25", "event": "人生無限公司", "city": "北京國家體育場(鳥巢)", "loc": "北京D2", "songs": ["派對動物", "傷心的人別聽慢歌", "OAOA", "入陣曲", "星空", "後來的我們", "擁抱", "戀愛ING", "乾杯", "兄弟", "人生有限公司", "成名在望", "我心中尚未崩壞的地方", "知足", "盛夏光年", "頑固", "I Will Carry You", "離開地球表面", "你不是真正的快樂 feat. 蔡依林", "天空 feat. 蔡依林", "大藝術家(蔡依林)", "笑忘歌", "什麼歌", "人生海海", "終於結束的起點", "我不願讓你一個人", "轉眼", "彩虹", "突然好想你", "最重要的小事", "倔強"]}, "geometry": {"type": "Point", "coordinates": [116.3970798, 39.99304171]}}, {"type": "Feature", "properties": {"id": 204, "series": "life_tour", "date": "2018.08.24", "event": "人生無限公司", "city": "北京國家體育場(鳥巢)", "loc": "北京D1", "songs": ["派對動物", "傷心的人別聽慢歌", "OAOA", "入陣曲", "星空", "你不是真正的快樂", "什麼歌", "戀愛ING", "乾杯", "兄弟", "人生有限公司", "成名在望", "我心中尚未崩壞的地方", "知足", "盛夏光年", "頑固", "I Will Carry You", "凡人歌", "離開地球表面 feat. 張惠妹", "三天三夜 feat. 張惠妹", "後來的我們 feat. 張惠妹", "牙關", "任意門", "人生海海", "終於結束的起點", "我不願讓你一個人", "轉眼", "彩虹", "突然好想你", "溫柔", "倔強", "相信", "憨人"]}, "geometry": {"type": "Point", "coordinates": [116.3972086, 39.99310747]}}, {"type": "Feature", "properties": {"id": 205, "series": "life_tour", "date": "2018.08.18", "event": "人生無限公司", "city": "南昌國際體育中心體育場", "loc": "南昌", "songs": ["派對動物", "傷心的人別聽慢歌", "OAOA", "入陣曲", "星空", "你不是真正的快樂", "溫柔", "乾杯", "兄弟", "人生有限公司", "成名在望", "我心中尚未崩壞的地方", "知足", "盛夏光年", "頑固", "I Will Carry You", "凡人歌", "離開地球表面", "香水", "心中無別人", "步步", "任意門", "人生海海", "我不願讓你一個人", "轉眼", "戀愛ING", "突然好想你", "倔強"]}, "geometry": {"type": "Point", "coordinates": [115.8208831, 28.62188708]}}, {"type": "Feature", "properties": {"id": 206, "series": "life_tour", "date": "2018.08.11", "event": "人生無限公司", "city": "襄陽體育中心體育場", "loc": "襄陽", "songs": ["派對動物", "傷心的人別聽慢歌", "OAOA", "入陣曲", "星空", "你不是真正的快樂", "溫柔", "香水", "乾杯", "兄弟", "人生有限公司", "成名在望", "我心中尚未崩壞的地方", "知足", "盛夏光年", "頑固", "I Will Carry You", "凡人歌", "離開地球表面", "倉頡", "相信", "任意門", "人生海海", "我不願讓你一個人", "轉眼", "戀愛ING", "突然好想你", "倔強"]}, "geometry": {"type": "Point", "coordinates": [112.1311913, 32.05720365]}}, {"type": "Feature", "properties": {"id": 207, "series": "life_tour", "date": "2018.07.29", "event": "人生無限公司", "city": "上海金山體育中心體育場", "loc": "上海D4", "songs": ["派對動物", "傷心的人別聽慢歌", "OAOA", "入陣曲", "星空", "你不是真正的快樂", "戀愛ING", "瘋狂世界", "突然好想你 feat. 陳綺貞", "私奔到月球 feat. 陳綺貞", "吉他手 feat. 陳綺貞", "乾杯", "兄弟", "人生有限公司", "成名在望", "我心中尚未崩壞的地方", "知足", "盛夏光年", "頑固", "I Will Carry You", "凡人歌", "離開地球表面", "永遠的永遠", "人生海海", "終於結束的起點", "我不願讓你一個人", "轉眼", "後來的我們", "倔強", "聽不到"]}, "geometry": {"type": "Point", "coordinates": [121.3295779, 30.78296876]}}, {"type": "Feature", "properties": {"id": 208, "series": "life_tour", "date": "2018.07.28", "event": "人生無限公司", "city": "上海金山體育中心體育場", "loc": "上海D3", "songs": ["派對動物", "最好的一天", "OAOA", "入陣曲", "星空", "你不是真正的快樂", "牙關", "戀愛ING", "終結孤單", "乾杯", "兄弟", "人生有限公司", "成名在望", "我心中尚未崩壞的地方", "知足", "盛夏光年", "傷心的人別聽慢歌", "Dancin' Dancin'", "生日快樂歌", "I'm In Love", "頑固", "I Will Carry You", "凡人歌", "離開地球表面", "愛情的模樣", "人生海海", "終於結束的起點", "我不願讓你一個人", "轉眼", "一顆蘋果", "突然好想你", "倔強"]}, "geometry": {"type": "Point", "coordinates": [121.3298461, 30.78294111]}},